stop_id,stop_code,stop_name,stop_desc,stop_lat,stop_lon,zone_id,stop_url,location_type,parent_station
7010B158131,158131.0,Ulsterbus Depot,,54.9966287583853,-7.31786633503893,,,,
7010B158241,158241.0,Magee Campus,,55.002956,-7.322545,,,,
7020IR0037,,Lisburn,,54.513863,-6.045132,,,,
7020IR2162,,Belfast,,54.594684,-5.939831,,,,
7040B107131,107131.0,Cullaville,,54.0620448123748,-6.64352516920916,,,,
7040B139481,139481.0,Newry,,54.1682530256848,-6.33909756269821,,,,
7040B139491,139491.0,Buttercrane Shopping Centre,,54.172871,-6.340996,,,,
7040B139501,139501.0,Newry,,54.172227,-6.340441,,,,
7040B139511,139511.0,Newry (Opp Quay Shopping Centre),,54.16869222,-6.339018889,,,,
7040B139761,139761.0,Killeen Bridge,,54.131009,-6.346082,,,,
7040B139771,139771.0,Killeen Bridge,,54.131023,-6.346479,,,,
7040B139781,139781.0,Meigh Cross,,54.115863,-6.357129,,,,
7040B139791,139791.0,Meigh Cross (Service Station),,54.11589222,-6.357278611,,,,
7040B150611,150611.0,Monaghan Street,,54.176486,-6.34535,,,,
7040B156051,156051.0,Newry,,54.176002,-6.339467,,,,
7040B156061,156061.0,Newry Bus Station,,54.1749986272411,-6.340145,,,,
7040IR0042,,Newry,,54.188659,-6.362413,,,,
7040IR0045,,Portadown,,54.424993,-6.445312,,,,
7040IR0090,,Lurgan,,54.467011,-6.338528,,,,
7050B108081,108081.0,Enniskillen,,54.3436944286399,-7.64007888696494,,,,
7050B140871,140871.0,Derrylin,,54.191672,-7.565929,,,,
7050B1409001,140901.0,Bellanaleck,,54.2950047241065,-7.63801510677572,,,,
7050B141541,141541.0,Belleek,,54.4761705959608,-8.09450198679982,,,,
7050B1415501,141551.0,Bellanaleck,,54.2950580826928,-7.63783030428049,,,,
7050B141561,141561.0,Derrylin,,54.191678,-7.565736,,,,
7050B630091,630091.0,Letterbreen,,54.3092870556637,-7.73268562828709,,,,
7050B630101,630101.0,Letterbreen,,54.3094925605682,-7.73216183422823,,,,
7050B6310001,631001.0,Belcoo,,54.297258,-7.869896,,,,
7050B631071,631071.0,Loughview Drive,,54.297373889864,-7.8701144779675,,,,
7060B152481,152481.0,Sion Mills,,54.7843117247012,-7.4716367976002,,,,
7060B156031,156031.0,Ballygawley,,54.456349,-7.033901,,,,
7060B157111,157111.0,Newtownstewart,,54.7218905194398,-7.37298186024223,,,,
7060B158031,158031.0,Ulsterbus Depot,,54.601343,-7.30175,,,,
7060B1581001,158101.0,Newtownstewart,,54.7217738838126,-7.37301470512109,,,,
7060B158121,158121.0,Bradley Way,,54.8265068781516,-7.47009002495236,,,,
7060B1581401,158141.0,Sion Mills,,54.785779358327,-7.47234836164944,,,,
7060B158181,158181.0,Canal Street,,54.8277460618064,-7.46378639704708,,,,
8210B111621,111621.0,St. Patrick's Avenue,,52.83712389,-6.914670278,,,,
8210B111891,111891.0,Sleaty Street,,52.84414778,-6.9397625,,,,
8210B1340201,134021.0,Hacketstown,,52.865375,-6.558453,,,,
8210B136061,136061.0,SETU Carlow,,52.8299811805242,-6.93597455431291,,,,
8210B1360701,136071.0,Leighlinbridge Cross,,52.735531445787,-6.98709757456481,,,,
8210B136211,136211.0,Rathvilly,,52.8805507014169,-6.69556191940628,,,,
8210B136231,136231.0,Hacketstown,,52.865221,-6.558399,,,,
8210B153991,153991.0,Tullow North,,52.8048199890738,-6.73250639090103,,,,
8210B154001,154001.0,Tullow North,,52.8046580908354,-6.73249626766088,,,,
8210B202101,202101.0,Wexford Road Business Park,,52.820615,-6.897133333,,,,
8210B335561,335561.0,Barrack Street,,52.8353868712984,-6.92542345782427,,,,
8210B3355701,335571.0,Hanover Bus Park,,52.833738,-6.926948,,,,
8210B339081,339081.0,Seskin Road,,52.7388720012359,-6.98568732045988,,,,
8210B3394301,339431.0,Royal Oak Road,,52.704245,-6.984179,,,,
8210B3511401,351141.0,Rathvilly,,52.8806191573759,-6.69524785426883,,,,
8210B3511801,351181.0,Kildavin,,52.683916,-6.685386,,,,
8210B351711,351711.0,Ballon,,52.7401879532436,-6.77039976288263,,,,
8210B351721,351721.0,Ballon,,52.7400872675218,-6.77022488071272,,,,
8210B5981201,598121.0,SETU Carlow,,52.8300543996409,-6.93612116551754,,,,
8210CO11091,201001.0,Tyndall College,,52.8191870838225,-6.94511035027316,,,,
8210CO11092,11092.0,South East T.U.,,52.8258575132511,-6.93718820056314,,,,
8210CO11093,110931.0,Bourlum Wood,,52.8234089692559,-6.93576417315221,,,,
8210CO11094,110941.0,Green Road,,52.8254972225156,-6.93409575023232,,,,
8210CO11095,110951.0,New Street,,52.8297293080953,-6.93094997361145,,,,
8210CO11096,110961.0,Hanover Road,,52.831402788289,-6.92914286697322,,,,
8210CO11098,110981.0,Fire Station,,52.8368675177698,-6.92317539653795,,,,
8210CO11099,110991.0,Green Lane,,52.8412390151113,-6.91760470744884,,,,
8210CO11100,111001.0,Deerpark,,52.8450256052914,-6.910028568691,,,,
8210CO11101,111011.0,O'Brien Road,,52.8404323530783,-6.90901547710549,,,,
8210CO11102,201041.0,Sandhills,,52.8396015413723,-6.90468720511796,,,,
8210CO11103,201051.0,Burrindale,,52.8417185632881,-6.90228857084598,,,,
8210CO11104,111041.0,Beechwood Park,,52.8447290479015,-6.8993178483131,,,,
8210CO11105,201061.0,Tinteán Coille,,52.8467534919845,-6.89567396632087,,,,
8210CO11106,201111.0,MSD Carlow,,52.8542540707242,-6.88461459284746,,,,
8210CO11108,111231.0,Tinteán Coille,,52.846704695522,-6.89525952315287,,,,
8210CO11109,111091.0,Beechwood Park,,52.8449237128477,-6.89898633164315,,,,
8210CO11110,111101.0,Burrindale,,52.8419495927723,-6.90200070569607,,,,
8210CO11111,111241.0,Sandhills,,52.8394110378197,-6.90742315927646,,,,
8210CO11112,111121.0,O'Brien Road,,52.8408841108663,-6.90927134174724,,,,
8210CO11113,111131.0,Deerpark,,52.8447843441739,-6.91018306196077,,,,
8210CO11114,111141.0,Green Lane,,52.8417803986177,-6.9168490415088,,,,
8210CO11115,111151.0,Fire Station,,52.8369802982362,-6.92272733445909,,,,
8210CO11117,111171.0,Hanover Road,,52.8318567971016,-6.92865680006758,,,,
8210CO11118,111181.0,New Street,,52.8290335983512,-6.93154580133862,,,,
8210CO11119,111191.0,Green Road,,52.8257379835869,-6.93388211775064,,,,
8210CO11120,111201.0,Bourlum Wood,,52.823007517304,-6.93610041018636,,,,
8210CO11121,111211.0,South East Technological University,,52.825967,-6.937364,,,,
8210CO11122,111221.0,Southern Gardens,,52.8225722592465,-6.94170477213663,,,,
8210CO11123,201011.0,Tyndall College,,52.819176383642,-6.94491773727636,,,,
8210CO11125,111251.0,Sleaty Street,,52.8439996189565,-6.93965480353861,,,,
8210CO11126,111261.0,Duggan Avenue,,52.8404906097978,-6.93824108301806,,,,
8210CO11127,113911.0,Maryborough Street,,52.8370852558864,-6.93836866743233,,,,
8210CO11128,111281.0,Castle,,52.8366214166072,-6.93575289664159,,,,
8210CO11129,111291.0,Kennedy Avenue,,52.8356578550039,-6.93154649642024,,,,
8210CO11132,111321.0,Pollerton Road,,52.836836,-6.918723,,,,
8210CO11133,111331.0,St Patrick's Avenue,,52.8372550548162,-6.91440872847484,,,,
8210CO11134,111341.0,Laurence O'Toole's,,52.8386832135007,-6.91135998212367,,,,
8210CO11135,113921.0,Askea,,52.8353793345851,-6.91078955687866,,,,
8210CO11138,113951.0,Tullow Road,,52.8314644864729,-6.9073109176096,,,,
8210CO11139,111391.0,The Orchards,,52.8299889505304,-6.90325209027016,,,,
8210CO11140,113961.0,Wallsforge,,52.8279700794832,-6.89974148791186,,,,
8210CO11143,111431.0,Wallsforge,,52.8278059924327,-6.89949336531098,,,,
8210CO11145,112031.0,Tullow Road,,52.8311908061556,-6.90687257180522,,,,
8210CO11146,113931.0,Ashgrove,,52.8306394370105,-6.91240699355307,,,,
8210CO11147,113941.0,Idrone Park,,52.8330663423838,-6.91340008908471,,,,
8210CO11148,111461.0,Askea,,52.8352572048558,-6.91119334211128,,,,
8210CO11149,111601.0,Laurence O'Toole's,,52.838257459751,-6.91197918691955,,,,
8210CO11151,113131.0,Pollerton Road,,52.836699,-6.919424,,,,
8210CO11154,111821.0,Kennedy Avenue,,52.8354234140417,-6.93146319884081,,,,
8210CO11155,111861.0,Castle,,52.8366511683206,-6.93606385727494,,,,
8210CO11156,111871.0,Maryborough Street,,52.8378666532649,-6.93830508322329,,,,
8210CO11157,111881.0,Duggan Avenue,,52.8398593226449,-6.93800414411021,,,,
8210CO11159,202001.0,Barrow Valley,,52.845344415256,-6.94330365849208,,,,
8210CO11444,111421.0,The Orchards,,52.8301367021632,-6.90367873188434,,,,
8210IR0001,,Muine Bheag (Bagenalstown),,52.69918,-6.952653,,,,
8210IR0002,,Carlow,,52.840788,-6.922622,,,,
822008203,8203.0,Visitor Centre,,53.36469,-6.33167,,,,
822008204,8204.0,Áras an Uachtaráin,,53.35938,-6.32384,,,,
822008205,8205.0,Dublin Zoo,,53.35173,-6.30548,,,,
822008206,8206.0,Park Gates,,53.34884,-6.29777,,,,
822008208,8208.0,Park Gates,,53.348995,-6.298737,,,,
822008209,8209.0,Dublin Zoo,,53.35169,-6.3057,,,,
822008210,8210.0,Áras an Uachtaráin,,53.358951,-6.32316,,,,
8220B1000401,100041.0,Clare Street,,53.341434,-6.251562,,,,
8220B100111,100111.0,Westland Row,,53.343163,-6.249959,,,,
8220B100351,100351.0,Merrion Square North,,53.3409427335809,-6.24994529768875,,,,
8220B100461,100461.0,Merrion Road,,53.3283555138789,-6.22837542799152,,,,
8220B1009001,100901.0,St Margaret's Road,,53.4001982314926,-6.30834665852557,,,,
8220B1011301,101131.0,North Road,,53.40014650036,-6.30786746825518,,,,
8220B1011501,101151.0,Glasnevin,,53.369942933041,-6.27806175078419,,,,
8220B1021101,102111.0,Bachelors Walk,,53.346833,-6.262471,,,,
8220B1046101,104611.0,Merrion Row,,53.3385331896343,-6.25480444135106,,,,
8220B106421,106421.0,3Arena,,53.346899,-6.229431,,,,
8220B10995,10995.0,Heuston Station,,53.3458575428185,-6.29388714847594,,,,
8220B111761,111761.0,Westland Row Church,,53.342626,-6.250132,,,,
8220B111771,111771.0,Irish Life,,53.349115135278,-6.25561891627054,,,,
8220B134961,134961.0,Dublin Busáras,,53.3499127208186,-6.25238682003711,,,,
8220B135001,135001.0,Dublin Busáras,,53.3495717825709,-6.25181494321315,,,,
8220B1350201,135021.0,DCU,,53.386888884633,-6.25663057318752,,,,
8220B1350301,135031.0,Beresford Place,,53.3487549295197,-6.25495768638166,,,,
8220B1351001,135101.0,Wellington Quay,,53.3458641751298,-6.26381729294171,,,,
8220B1351201,135121.0,Connolly Station,,53.3502180212919,-6.25052670165242,,,,
8220B1351401,135141.0,George's Quay,,53.347377,-6.252222,,,,
8220B1352701,135271.0,Custom House Quay,,53.348359,-6.253712,,,,
8220B1353101,135311.0,Wilton Terrace,,53.333451,-6.249021,,,,
8220B1353301,135331.0,Dawson Street,,53.340134371715,-6.25858361137312,,,,
8220B1353501,135351.0,Eden Quay,,53.3477999659065,-6.25849647173381,,,,
8220B1354001,135401.0,Heuston Station,,53.346033,-6.292647,,,,
8220B135411,135411.0,Wilton Terrace,,53.333421,-6.249085,,,,
8220B1354201,135421.0,Heuston Station,,53.346197,-6.292462,,,,
8220B211521,211521.0,Merrion Square West,,53.3409101463996,-6.25078764576979,,,,
8220B3551501,355151.0,Vincent's Hospital,,53.3173579970596,-6.21598254819272,,,,
8220DB000002,2.0,Parnell Square West,,53.3522443611383,-6.26372321891887,,,,
8220DB000003,3.0,Parnell Square West,,53.3523085514325,-6.26381074216825,,,,
8220DB000004,4.0,Parnell Square West,,53.352574513185,-6.26417548603797,,,,
8220DB000005,5.0,Parnell Square West,,53.3525736395204,-6.26411543286632,,,,
8220DB000007,7.0,Parnell Square West,,53.3528409105784,-6.26457026121749,,,,
8220DB000008,8.0,Parnell Square West,,53.3532722714822,-6.265183676574,,,,
8220DB000010,10.0,Parnell Square West,,53.3533921036473,-6.26538912389954,,,,
8220DB000011,11.0,St Joseph's Parade,,53.3568152335295,-6.26467919507526,,,,
8220DB000012,12.0,Upper Dorset Street,,53.3571075162022,-6.2643818673353,,,,
8220DB000014,14.0,Dorset Street Lower,,53.3585312378758,-6.2627765057087,,,,
8220DB000015,15.0,Innisfallen Parade,,53.360267,-6.260978,,,,
8220DB000016,16.0,Nephin Road Park,,53.3663915571411,-6.30561418352737,,,,
8220DB000017,17.0,Drumcondra Rail Station,,53.3630783243779,-6.25839928847834,,,,
8220DB000018,18.0,Dargle Road,,53.3658559259166,-6.25595682067835,,,,
8220DB000019,19.0,Botanic Avenue,,53.3672348759324,-6.25559994097702,,,,
8220DB000021,21.0,DCU St Patrick's,,53.3701011992947,-6.25431059904442,,,,
8220DB000022,22.0,Home Farm Road,,53.3735036097406,-6.25280375269006,,,,
8220DB000023,23.0,Ferguson Road,,53.3742282800791,-6.256261004167,,,,
8220DB000024,24.0,Walsh Road,,53.3751331588841,-6.26037234812319,,,,
8220DB000025,25.0,Rathlin Road,,53.3758994661474,-6.26361773641709,,,,
8220DB000027,27.0,Ballymun Road,,53.3794389600107,-6.26658526126003,,,,
8220DB000028,28.0,Hampstead Avenue,,53.381578637628,-6.26600227077738,,,,
8220DB000029,29.0,Albert College Park,,53.3834882529457,-6.26566910125417,,,,
8220DB000030,30.0,Ventry Park,,53.370331900193,-6.30460116922913,,,,
8220DB000031,31.0,St Pappin's Road,,53.3860332259144,-6.268858077275,,,,
8220DB000032,32.0,Stormanstown Road,,53.3861955680738,-6.2713772010414,,,,
8220DB000033,33.0,Glasnevin Drive,,53.3887179243058,-6.27177114122451,,,,
8220DB000035,35.0,Dean Swift Road,,53.3862067871013,-6.270910692541,,,,
8220DB000036,36.0,Maolbuille Road,,53.386126850411,-6.26787706978339,,,,
8220DB000037,37.0,DCU Ballymun Road,,53.385346401194,-6.26488698131794,,,,
8220DB000038,38.0,Hampstead Avenue,,53.3822365941636,-6.26550952120506,,,,
8220DB000039,39.0,The Rise,,53.3804141869323,-6.26565875906589,,,,
8220DB000040,40.0,Stella Avenue,,53.3766607654507,-6.26466896852794,,,,
8220DB000041,41.0,Home Farm Road,,53.3755592683258,-6.26185800624669,,,,
8220DB000042,42.0,Corpus Christi NS,,53.3746502734575,-6.25746118972134,,,,
8220DB000043,43.0,Achill Road,,53.3738612202267,-6.25390131043392,,,,
8220DB000044,44.0,Skylon Hotel,,53.3730174091204,-6.25213230324296,,,,
8220DB000045,45.0,DCU St Patrick's,,53.3699364344006,-6.25410694084966,,,,
8220DB000046,46.0,Botanic Avenue,,53.367131016215,-6.25525855655013,,,,
8220DB000047,47.0,Drumcondra Rail Station,,53.3639161189927,-6.25729825652802,,,,
8220DB000048,48.0,Fitzroy Avenue,,53.3622573901228,-6.25880841233317,,,,
8220DB000049,49.0,Dorset Street Lower,,53.3600042378879,-6.26085350834054,,,,
8220DB000051,51.0,Temple Street,,53.3578104088094,-6.26327157246552,,,,
8220DB000052,52.0,Dorset Street Upper,,53.3566607792349,-6.26456528204098,,,,
8220DB000053,53.0,North Circular Road,,53.3600144884223,-6.26279128910752,,,,
8220DB000054,54.0,Mater Hospital,,53.3602216080548,-6.26590803396309,,,,
8220DB000055,55.0,Mountjoy,,53.3604116029234,-6.26846957982236,,,,
8220DB000056,56.0,Dalymount,,53.3607597246041,-6.2763736549141,,,,
8220DB000057,57.0,Dalymount,,53.3608162242918,-6.27655167484331,,,,
8220DB000058,58.0,Churchview Home,,53.3609462458913,-6.28120420246722,,,,
8220DB000059,59.0,Annamoe Terrace,,53.3610180101964,-6.28494256312827,,,,
8220DB000060,60.0,Quarry Road,,53.3612792196482,-6.28936450005445,,,,
8220DB000063,63.0,Faussaugh Avenue,,53.366792437293,-6.29275010805854,,,,
8220DB000064,64.0,Faussaugh Avenue Church,,53.3670885820667,-6.29523278220336,,,,
8220DB000065,65.0,Dingle Road,,53.3672546442386,-6.29805127641299,,,,
8220DB000066,66.0,Broombridge Road,,53.367275,-6.30074,,,,
8220DB000068,68.0,Ventry Drive,,53.369077508046,-6.30424523466641,,,,
8220DB000069,69.0,Carnlough Road,,53.3713925640935,-6.30334171689525,,,,
8220DB000071,71.0,Ventry Park,,53.3702576893289,-6.30443880530351,,,,
8220DB000072,72.0,Ventry Drive,,53.368969926025,-6.30426453600163,,,,
8220DB000073,73.0,Faussagh Avenue,,53.3673915527258,-6.3007206786557,,,,
8220DB000074,74.0,Faussaugh Avenue Church,,53.3672002385634,-6.29549881400778,,,,
8220DB000075,75.0,Fionnbarra GAA,,53.3665472298946,-6.29131731936794,,,,
8220DB000077,77.0,Quarry Road,,53.3613091819025,-6.28957365234688,,,,
8220DB000078,78.0,Annamoe Terrace,,53.3611492151906,-6.28406583527474,,,,
8220DB000079,79.0,Churchview Home,,53.3610212509762,-6.28079550562152,,,,
8220DB000080,80.0,Phibsborough PO,,53.360862963273,-6.27605396152962,,,,
8220DB000081,81.0,Phibsborough,,53.3608757479059,-6.27196662691607,,,,
8220DB000082,82.0,Phibsborough,,53.3607977959156,-6.27154908016382,,,,
8220DB000083,83.0,Mater Hospital,,53.3602792498223,-6.26554509616275,,,,
8220DB000084,84.0,Leo Street,,53.3601625615962,-6.26370178059102,,,,
8220DB000085,85.0,Wellpark Avenue,,53.3739579526136,-6.2519134296642,,,,
8220DB000087,87.0,Clare Road,,53.3767517255719,-6.2548802899246,,,,
8220DB000088,88.0,Walnut Rise,,53.3772872552991,-6.2576992286456,,,,
8220DB000090,90.0,Albert College Court,,53.3863855316738,-6.26526567275522,,,,
8220DB000091,91.0,Ballymun Road NS,,53.3884278896483,-6.26540814207682,,,,
8220DB000092,92.0,Ballymun Library,,53.3898373340512,-6.26467424036105,,,,
8220DB000093,93.0,Gateway Avenue,,53.3923014677497,-6.26415297561013,,,,
8220DB000094,94.0,Civic Centre,,53.3960347624115,-6.26437695995448,,,,
8220DB000102,102.0,Balbutcher Lane,,53.397773070166,-6.26771985697013,,,,
8220DB000104,104.0,Poppintree Parade,,53.3997562075174,-6.27681294502528,,,,
8220DB000105,105.0,Belclare Park,,53.4029363966818,-6.28169269646949,,,,
8220DB000107,107.0,Crannogue Road,,53.4023798987989,-6.28049690990612,,,,
8220DB000110,110.0,Ard na Meala,,53.3979386409613,-6.26860038147331,,,,
8220DB000112,112.0,Civic Centre,,53.3961544015462,-6.2639510403018,,,,
8220DB000113,113.0,Trinity Comp School,,53.3922679629262,-6.26370325464247,,,,
8220DB000114,114.0,Ballymun Road,,53.3913333220544,-6.26371122925237,,,,
8220DB000115,115.0,Ballymun Road Church,,53.3879640919871,-6.26503610048148,,,,
8220DB000116,116.0,Griffith Lawns,,53.3776934606436,-6.25966673989336,,,,
8220DB000117,117.0,Walnut Rise,,53.3773659067251,-6.25754570845526,,,,
8220DB000118,118.0,Clare Road,,53.3766430016908,-6.25359209857681,,,,
8220DB000119,119.0,The Village,,53.3751904807235,-6.25076574528234,,,,
8220DB000126,126.0,Nursing Home,,53.3990954666854,-6.26408696056045,,,,
8220DB000127,127.0,Nursing Home,,53.3991075304805,-6.26368042823971,,,,
8220DB000128,128.0,Glasnevin Avenue,,53.3892678697418,-6.26568972261117,,,,
8220DB000129,129.0,Glasnevin Drive,,53.3898903154474,-6.27142293606878,,,,
8220DB000130,130.0,Glasnevin Park,,53.3900920127596,-6.27418126942505,,,,
8220DB000131,131.0,Willow Park Road,,53.3903858902624,-6.27834923697209,,,,
8220DB000132,132.0,Beneavin Park,,53.3905207424932,-6.2827191236982,,,,
8220DB000133,133.0,Grove Park Road,,53.3907969275881,-6.28630150947292,,,,
8220DB000134,134.0,Sycamore Road,,53.3930945913203,-6.28607386543561,,,,
8220DB000136,136.0,McKee Road,,53.3943802013894,-6.28985659650009,,,,
8220DB000137,137.0,Clancy Avenue,,53.3923167196303,-6.29263079481432,,,,
8220DB000138,138.0,St Canice's BNS,,53.3899950092672,-6.29180657264741,,,,
8220DB000139,139.0,Grove Park Road,,53.3906014624241,-6.28645971748872,,,,
8220DB000140,140.0,Beneavin Park,,53.3906344923641,-6.28250404674216,,,,
8220DB000141,141.0,Willow Park Road,,53.3904450850916,-6.27809124468715,,,,
8220DB000142,142.0,Glasnevin Park,,53.3901982852621,-6.27407172195534,,,,
8220DB000143,143.0,Willow Park Avenue,,53.389876708405,-6.2692433699802,,,,
8220DB000146,146.0,Na Fianna GAA Club,,53.3750401276319,-6.26509558567468,,,,
8220DB000147,147.0,Tolka Bridge,,53.37248,-6.265831,,,,
8220DB000148,148.0,Mobhi Road,,53.3706701663468,-6.26806850705825,,,,
8220DB000149,149.0,Tolka Bridge,,53.373139,-6.265985,,,,
8220DB000150,150.0,Na Fianna GAA Club,,53.3756588461862,-6.26499528302822,,,,
8220DB000151,151.0,Botanic Gardens,,53.3719552600192,-6.26929382771155,,,,
8220DB000153,153.0,Met Eireann,,53.3756885056236,-6.27013443946296,,,,
8220DB000154,154.0,St Brigid's School,,53.3772589962512,-6.27555703718651,,,,
8220DB000155,155.0,Old Finglas Road,,53.3778742492869,-6.27957552717572,,,,
8220DB000156,156.0,Tolka Estate,,53.378623390086,-6.28166473909492,,,,
8220DB000157,157.0,Glasilawn Road,,53.3804116224166,-6.28163782517765,,,,
8220DB000158,158.0,Griffith Road,,53.3814819498289,-6.28356395405038,,,,
8220DB000159,159.0,Griffith Parade,,53.3827837191573,-6.28283511246108,,,,
8220DB000164,164.0,Beneavin Road,,53.3884303639456,-6.28048792293046,,,,
8220DB000165,165.0,Beneavin Park,,53.3890348746718,-6.28377124881097,,,,
8220DB000166,166.0,Beneavin School,,53.3895835973683,-6.28630514857364,,,,
8220DB000167,167.0,Beneavin Road,,53.3901866021356,-6.28698758531706,,,,
8220DB000168,168.0,Beneavin Park,,53.3892599668872,-6.28442373469442,,,,
8220DB000169,169.0,Beneavin Court,,53.3884339346693,-6.28011190995853,,,,
8220DB000173,173.0,Glasnamana Place,,53.3821216122982,-6.28054674839469,,,,
8220DB000174,174.0,Tolka Estate,,53.3806803549474,-6.28095056210771,,,,
8220DB000175,175.0,Northland Grove,,53.3784242537309,-6.28156753895514,,,,
8220DB000176,176.0,Old Finglas Road,,53.3780320419735,-6.27929860607809,,,,
8220DB000177,177.0,Ballygall Road East,,53.3804683765673,-6.27622403515383,,,,
8220DB000178,178.0,Fitzmaurice Road,,53.3818902631693,-6.27634698261825,,,,
8220DB000179,179.0,Ballygall Road East,,53.3803034312762,-6.27600521980133,,,,
8220DB000180,180.0,Cremore Crescent,,53.3784395640865,-6.2763961751655,,,,
8220DB000181,181.0,Cremore Avenue,,53.3771498433764,-6.27422370686192,,,,
8220DB000182,182.0,Met Eireann,,53.3756567668221,-6.26980505970865,,,,
8220DB000183,183.0,Botanic Gardens,,53.3723159291215,-6.26875318486038,,,,
8220DB000184,184.0,Botanic Road,,53.3697036819826,-6.26897935449929,,,,
8220DB000185,185.0,St Teresa's Place,,53.3681009359861,-6.27002113927784,,,,
8220DB000186,186.0,Lindsay Grove,,53.365355342635,-6.27158997755118,,,,
8220DB000187,187.0,Phibsborough Road,,53.3627342523604,-6.27244736533831,,,,
8220DB000188,188.0,North Circular Road,,53.3601206877553,-6.27258314915011,,,,
8220DB000189,189.0,Fire Station,,53.3571674394883,-6.27346881555339,,,,
8220DB000190,190.0,Broadstone,,53.3551257304144,-6.27337107400574,,,,
8220DB000191,191.0,Western Way,,53.3550179485755,-6.26903378050291,,,,
8220DB000192,192.0,Mountjoy Street,,53.3563972112359,-6.26807646963914,,,,
8220DB000193,193.0,Finglas Park,,53.3911963059787,-6.29410403487394,,,,
8220DB000194,194.0,Western Way,,53.3550406495518,-6.26997931103774,,,,
8220DB000195,195.0,Broadstone,,53.3550117778767,-6.27357097973096,,,,
8220DB000196,196.0,Fire Station,,53.3568838992907,-6.27375070406954,,,,
8220DB000197,197.0,Monck Place,,53.358952631612,-6.27323137351172,,,,
8220DB000198,198.0,Phibsborough SC,,53.3616253828786,-6.27283781041661,,,,
8220DB000199,199.0,Munster Street,,53.3636218114982,-6.27229124622519,,,,
8220DB000200,200.0,Prospect Way,,53.3674226926312,-6.27159644393802,,,,
8220DB000201,201.0,Botanic Road,,53.3682910986599,-6.27011862691081,,,,
8220DB000202,202.0,Fairfield Road,,53.3700800875498,-6.26890397753376,,,,
8220DB000203,203.0,Whitehall College,,53.3763927937136,-6.25001002810673,,,,
8220DB000204,204.0,Highfield Hospital,,53.379588357567,-6.24666219273761,,,,
8220DB000205,205.0,Iveragh Road,,53.3813753269372,-6.24532604699473,,,,
8220DB000206,206.0,Collins Avenue West,,53.3835460890329,-6.24747670792428,,,,
8220DB000207,207.0,Larkhill Road,,53.3848216307362,-6.24987478276802,,,,
8220DB000208,208.0,Glendun Road,,53.3866539303158,-6.24795040815756,,,,
8220DB000209,209.0,Larkhill Road,,53.387271110529,-6.24591044728042,,,,
8220DB000210,210.0,Crestfield Road,,53.3875940812728,-6.24831772849056,,,,
8220DB000211,211.0,Collins Avenue,,53.3842808561631,-6.24916033059417,,,,
8220DB000212,212.0,Whitehall,,53.3831956351277,-6.24625839753322,,,,
8220DB000213,213.0,Iveragh Road,,53.3814495440234,-6.24487202356896,,,,
8220DB000214,214.0,Highfield Hospital,,53.379408483573,-6.24665455182556,,,,
8220DB000215,215.0,Collins Avenue,,53.3818722870048,-6.2424494292295,,,,
8220DB000216,216.0,Beaumont Road,,53.3823308174836,-6.23819131969338,,,,
8220DB000217,217.0,Grace Park Court,,53.384323621843,-6.23680112220447,,,,
8220DB000218,218.0,Shantalla Road,,53.3859238989699,-6.2337883241109,,,,
8220DB000220,220.0,Swords Road,,53.3879405396554,-6.24498084117383,,,,
8220DB000228,228.0,Shanliss Road,,53.391877392779,-6.25971957291398,,,,
8220DB000233,233.0,Beaumont Road,,53.3858213105789,-6.23353699415902,,,,
8220DB000234,234.0,Beaumont Grove,,53.3849504827242,-6.23482084271804,,,,
8220DB000235,235.0,Collinswood,,53.3832966131819,-6.23724945651059,,,,
8220DB000236,236.0,Yellow Road,,53.3820247430957,-6.23815886003786,,,,
8220DB000237,237.0,Swords Road,,53.3820319328819,-6.24352519975875,,,,
8220DB000242,242.0,Coolgreena Road,,53.3856548985671,-6.23201042765,,,,
8220DB000243,243.0,Lady of Mercy,,53.3857800608389,-6.22953967454698,,,,
8220DB000244,244.0,Skelly's Lane,,53.3849982136853,-6.22349851566417,,,,
8220DB000245,245.0,Whitethorn Crescent,,53.38447224442,-6.21956660604612,,,,
8220DB000246,246.0,Artane Castle,,53.3851504766469,-6.21623087716996,,,,
8220DB000247,247.0,Ardlea Road,,53.3869761610588,-6.21450075590277,,,,
8220DB000248,248.0,Maryfield Drive,,53.3855645601725,-6.21446963135785,,,,
8220DB000249,249.0,Artane Castle,,53.3849335491788,-6.21614974496396,,,,
8220DB000250,250.0,Skelly's Lane,,53.3844194499785,-6.22024531610136,,,,
8220DB000251,251.0,Elmount Crescent,,53.3848322787448,-6.22321978633312,,,,
8220DB000252,252.0,Lady of Mercy,,53.3855680158371,-6.22796991791541,,,,
8220DB000253,253.0,Beaumont Hospital,,53.3899625746413,-6.22429914227646,,,,
8220DB000254,254.0,Beaumont Hospital,,53.3902652984433,-6.22410611366838,,,,
8220DB000255,255.0,Coolgreena Road,,53.3855938804189,-6.23153187241743,,,,
8220DB000259,259.0,Grace Park Road,,53.3740108657416,-6.24388537443071,,,,
8220DB000261,261.0,Parnell Square East,,53.3540562845333,-6.26285336122226,,,,
8220DB000262,262.0,Parnell Square East,,53.3539469610394,-6.26275264892108,,,,
8220DB000263,263.0,Parnell Square East,,53.3537456234947,-6.2625054539801,,,,
8220DB000264,264.0,Parnell Square East,,53.353316,-6.26197,,,,
8220DB000265,265.0,Parnell Square East,,53.353122,-6.261658,,,,
8220DB000270,270.0,O'Connell Street Upper,,53.3506233915307,-6.26042429163433,,,,
8220DB000271,271.0,O'Connell Street Lower,,53.3485963625818,-6.25948541997212,,,,
8220DB000272,272.0,O'Connell Street Upper,,53.3514644798917,-6.26078060573293,,,,
8220DB000273,273.0,O'Connell Bridge,,53.347247,-6.258819,,,,
8220DB000274,274.0,O'Connell Street Upper,,53.3503490838222,-6.26072086862175,,,,
8220DB000276,276.0,River Road,,53.3774022009249,-6.33179658312856,,,,
8220DB000277,277.0,O'Connell Street Upper,,53.350822325818,-6.26050631978692,,,,
8220DB000278,278.0,O'Connell Street Upper,,53.3515608719031,-6.26122733564317,,,,
8220DB000279,279.0,O'Connell Street Upper,,53.3501317464093,-6.26060954701665,,,,
8220DB000281,281.0,O'Connell Street Upper,,53.3513435349588,-6.2611160084316,,,,
8220DB000284,284.0,Rathbourne Avenue,,53.3772826239301,-6.32838928381528,,,,
8220DB000286,286.0,Cathal Brugha Street,,53.3521708437386,-6.25991061099437,,,,
8220DB000288,288.0,Irish Life,,53.3491688123216,-6.25560170347437,,,,
8220DB000289,289.0,Abbey Street Lower,,53.3490351823471,-6.25629812341943,,,,
8220DB000292,292.0,Abbey Street Lower,,53.3491996947616,-6.25525495938711,,,,
8220DB000297,297.0,Eden Quay,,53.3481432679358,-6.25677012601713,,,,
8220DB000298,298.0,Eden Quay,,53.3482006633743,-6.25639226781083,,,,
8220DB000299,299.0,Eden Quay,,53.3482418474457,-6.25613523566336,,,,
8220DB000300,300.0,Liberty Hall,,53.3482992408586,-6.25575737577466,,,,
8220DB000301,301.0,Eden Quay,,53.3479883676,-6.25662624092325,,,,
8220DB000302,302.0,Eden Quay,,53.3480380961813,-6.2563388203753,,,,
8220DB000303,303.0,Eden Quay,,53.3480599980905,-6.25599245267006,,,,
8220DB000307,307.0,O'Donovan Road,,53.3345770894658,-6.28008746416521,,,,
8220DB000308,308.0,Oscar Square,,53.3367711889546,-6.27953365692407,,,,
8220DB000309,309.0,Ardee Street,,53.33784,-6.27895,,,,
8220DB000312,312.0,Wellington Quay,,53.3454764728264,-6.2662061554843,,,,
8220DB000315,315.0,Bachelors Walk,,53.347028,-6.261667,,,,
8220DB000316,316.0,Bachelors Walk,,53.346893,-6.262228,,,,
8220DB000318,318.0,Westmoreland Street,,53.3464177131169,-6.25924373595417,,,,
8220DB000319,319.0,Westmoreland Street,,53.346274426733,-6.25927961394877,,,,
8220DB000320,320.0,Westmoreland Street,,53.3456456323889,-6.25930523253448,,,,
8220DB000322,322.0,Gulliver's Retail Park,,53.4042549924644,-6.26535084532186,,,,
8220DB000325,325.0,Aston Quay,,53.3466970502533,-6.2599082595371,,,,
8220DB000328,328.0,Aston Quay,,53.346333,-6.26144,,,,
8220DB000329,329.0,Aston Quay,,53.346274,-6.261683,,,,
8220DB000333,333.0,D'Olier Street,,53.3466922365908,-6.25834636399196,,,,
8220DB000334,334.0,D'Olier Street,,53.346581156205,-6.25812559112216,,,,
8220DB000335,335.0,D'Olier Street,,53.3463614054418,-6.25784917048538,,,,
8220DB000336,336.0,D'Olier Street,,53.3462516394294,-6.25771846673947,,,,
8220DB000340,340.0,Townsend Street,,53.345975,-6.256017,,,,
8220DB000341,341.0,South Townsend Street,,53.345945,-6.256424,,,,
8220DB000342,342.0,College Street,,53.3455641183174,-6.25680026075817,,,,
8220DB000345,345.0,Pearse Street Garda Station,,53.345475815469,-6.2562931940713,,,,
8220DB000346,346.0,Pearse Street Garda Station,,53.3455443981649,-6.25668090763654,,,,
8220DB000350,350.0,Prince's Street South,,53.3456319415816,-6.24976824959424,,,,
8220DB000351,351.0,Erne Street,,53.3434182647907,-6.24530817378361,,,,
8220DB000352,352.0,Pearse Square,,53.342989145803,-6.2424121399899,,,,
8220DB000353,353.0,Grand Canal Quay,,53.3426450090424,-6.23979801761228,,,,
8220DB000354,354.0,Ringsend Road,,53.3422358280174,-6.2364356898267,,,,
8220DB000355,355.0,Ringsend Garage,,53.3418173477811,-6.233058790693,,,,
8220DB000356,356.0,Ringsend,,53.3419030234416,-6.22671744313464,,,,
8220DB000357,357.0,Irishtown Road,,53.3391710439669,-6.22312147489857,,,,
8220DB000358,358.0,Sean Moore Road,,53.3390271337242,-6.21709042092931,,,,
8220DB000369,369.0,Pine Road,,53.3405094978855,-6.21403998399881,,,,
8220DB000371,371.0,Irishtown Road,,53.3386127807367,-6.22305458253422,,,,
8220DB000372,372.0,Star of the Sea,,53.3354881469499,-6.21965567144901,,,,
8220DB000373,373.0,Farney Park,,53.3342753312713,-6.21788927259654,,,,
8220DB000374,374.0,Sandymount,,53.3332284399006,-6.21640134211922,,,,
8220DB000375,375.0,Dromard Terrace,,53.3340611346518,-6.2143845130625,,,,
8220DB000381,381.0,St John's Church,,53.3243237661065,-6.21237419337667,,,,
8220DB000385,385.0,Newgrove Avenue,,53.332351023118,-6.21122768794002,,,,
8220DB000387,387.0,Sandymount,,53.3324995101993,-6.21574105767749,,,,
8220DB000388,388.0,Farney Park,,53.334508861965,-6.21848017255212,,,,
8220DB000389,389.0,Star of the Sea,,53.3352900817962,-6.21963388936862,,,,
8220DB000390,390.0,Tritonville Road,,53.3376299137845,-6.2222394793377,,,,
8220DB000391,391.0,Bath Street,,53.3400638554722,-6.22392535183325,,,,
8220DB000392,392.0,Ringsend,,53.3417336311665,-6.22741532105921,,,,
8220DB000393,393.0,Tritonville Road,,53.3369038877169,-6.22237479685263,,,,
8220DB000395,395.0,Ringsend Road,,53.3419400535651,-6.23527645441634,,,,
8220DB000396,396.0,Grand Canal Quay,,53.3424425175709,-6.2394759484262,,,,
8220DB000397,397.0,Pearse Square,,53.3427855554404,-6.24201500730761,,,,
8220DB000398,398.0,Erne Street,,53.3432949350358,-6.24547844686789,,,,
8220DB000399,399.0,Pearse Station,,53.3438668221062,-6.24830860143225,,,,
8220DB000400,400.0,Shaw Street,,53.344849,-6.25339,,,,
8220DB000403,403.0,Nassau Street,,53.3427135106709,-6.25670629404065,,,,
8220DB000404,404.0,Nassau Street,,53.3426633325105,-6.25634789239429,,,,
8220DB000405,405.0,Nassau Street,,53.3424816891816,-6.2556043726643,,,,
8220DB000406,406.0,Nassau Street,,53.3426061451636,-6.25612494578261,,,,
8220DB000407,407.0,Custom House,,53.348335,-6.253893,,,,
8220DB000408,408.0,Merrion Square North,,53.3409707826238,-6.25001923957642,,,,
8220DB000409,409.0,Holles Street,,53.3401367313169,-6.24769559556976,,,,
8220DB000410,410.0,Mount Street Lower,,53.3388134508634,-6.24389039032328,,,,
8220DB000411,411.0,Mount Street Bridge,,53.338117,-6.241772,,,,
8220DB000412,412.0,Haddington Road,,53.3352555102365,-6.2372793190562,,,,
8220DB000413,413.0,Lansdowne Park,,53.334094193305,-6.23654639405152,,,,
8220DB000414,414.0,Lansdowne Road,,53.3315738058948,-6.23447321695274,,,,
8220DB000415,415.0,American Embassy,,53.3303378154068,-6.23294774966437,,,,
8220DB000416,416.0,RDS Ballsbridge,,53.3286399201175,-6.22936956914703,,,,
8220DB000417,417.0,Merrion Road,,53.3276995856506,-6.22597042048855,,,,
8220DB000418,418.0,British Embassy,,53.3257198105114,-6.22339529752618,,,,
8220DB000419,419.0,Shrewsbury Park,,53.3239951058417,-6.22044950312351,,,,
8220DB000420,420.0,Merlyn Road,,53.3219108012885,-6.21750392172748,,,,
8220DB000421,421.0,Merrion View Avenue,,53.3200051794214,-6.21449112042242,,,,
8220DB000422,422.0,St Vincent's Hospital,,53.318064191863,-6.21032428070782,,,,
8220DB000423,423.0,Herbert Avenue,,53.3171485041341,-6.20740565828118,,,,
8220DB000424,424.0,Merrion Gates,,53.3153943801988,-6.20372686621344,,,,
8220DB000476,476.0,Merrion Gates,,53.3157515263706,-6.20476252273264,,,,
8220DB000477,477.0,Herbert Avenue,,53.3168630546822,-6.20695232009333,,,,
8220DB000478,478.0,St Vincent's Hospital,,53.3181142989155,-6.21126782530888,,,,
8220DB000479,479.0,Merrion Centre,,53.319143967621,-6.2134012866997,,,,
8220DB000480,480.0,Netherlands Embassy,,53.3208499799872,-6.2162872053677,,,,
8220DB000481,481.0,Wanderers FC,,53.322761,-6.21883,,,,
8220DB000482,482.0,Shrewsbury Road,,53.3247277780849,-6.22196529496771,,,,
8220DB000483,483.0,British Embassy,,53.3259441074939,-6.22397148052329,,,,
8220DB000485,485.0,RDS Ballsbridge,,53.3282515101272,-6.22863497077619,,,,
8220DB000486,486.0,RDS Ballsbridge,,53.3283287183649,-6.22899210119283,,,,
8220DB000487,487.0,American Embassy,,53.3308552893807,-6.23390230837209,,,,
8220DB000488,488.0,Lansdowne Park,,53.3330985546294,-6.23607694701107,,,,
8220DB000489,489.0,St Mary's Road South,,53.3349420031452,-6.2373523126562,,,,
8220DB000490,490.0,Haddington Road,,53.3365738419127,-6.23890680600167,,,,
8220DB000491,491.0,Mount Street Bridge,,53.3378140535091,-6.24133351088674,,,,
8220DB000492,492.0,Mount Street Lower,,53.338584685142,-6.24361446215909,,,,
8220DB000493,493.0,Holles Street,,53.3398534163774,-6.24737682273898,,,,
8220DB000494,494.0,Clare Street,,53.3414355833565,-6.25168225233917,,,,
8220DB000495,495.0,Pearse Station,,53.3435913198129,-6.24974670516903,,,,
8220DB000496,496.0,Busáras,,53.3494968761341,-6.25222357868164,,,,
8220DB000497,497.0,Connolly,,53.3505260753991,-6.25069434322382,,,,
8220DB000499,499.0,Summerhill Parade,,53.3574503386161,-6.24908862686224,,,,
8220DB000500,500.0,Ballybough Road,,53.3590360763177,-6.24628915528183,,,,
8220DB000501,501.0,Clonliffe Avenue,,53.3607056846882,-6.24369637425144,,,,
8220DB000509,509.0,Ballybough Road,,53.3606013493589,-6.24332503950194,,,,
8220DB000510,510.0,Charleville Avenue,,53.35918937754,-6.24571192723741,,,,
8220DB000511,511.0,Summerhill Parade,,53.3575155897132,-6.24863523337024,,,,
8220DB000512,512.0,Summerhill,,53.3559473573122,-6.25201971110246,,,,
8220DB000513,513.0,Rutland Street,,53.3552119629816,-6.25397276810398,,,,
8220DB000515,515.0,Portland Row,,53.35439,-6.2472,,,,
8220DB000516,516.0,North Strand Road,,53.35621,-6.244942,,,,
8220DB000518,518.0,Nottingham Street,,53.3589041624283,-6.2409909439451,,,,
8220DB000519,519.0,North Strand Fire Station,,53.3603387601165,-6.23953452865897,,,,
8220DB000522,522.0,Fairview,,53.363207,-6.2356,,,,
8220DB000523,523.0,Marino College,,53.364355,-6.231308,,,,
8220DB000525,525.0,Howth Road,,53.3649608735109,-6.22633091116316,,,,
8220DB000526,526.0,Copeland Grove,,53.3668695721479,-6.22111227858031,,,,
8220DB000527,527.0,Ashbrook,,53.3680198762275,-6.21267888054445,,,,
8220DB000528,528.0,Castle Grove,,53.369264080697,-6.20993674463178,,,,
8220DB000529,529.0,Collins Avenue,,53.3705774149451,-6.20761234516729,,,,
8220DB000530,530.0,Killester,,53.3712245323444,-6.20402332968282,,,,
8220DB000531,531.0,The Demesne,,53.3732509125103,-6.20130788472614,,,,
8220DB000532,532.0,The Meadows,,53.375802080403,-6.19347468575652,,,,
8220DB000533,533.0,Ennafort Park,,53.3775832778026,-6.18705613952442,,,,
8220DB000534,534.0,Cill Eanna,,53.3787502415594,-6.18164028998948,,,,
8220DB000535,535.0,Raheny,,53.380257073034,-6.17730695711373,,,,
8220DB000536,536.0,Raheny Library,,53.3804237567076,-6.17351172677606,,,,
8220DB000537,537.0,Avondale Park,,53.3799012003047,-6.16815263497725,,,,
8220DB000538,538.0,Maywood,,53.3801380645862,-6.16426418318854,,,,
8220DB000539,539.0,Foxfield,,53.3806736618095,-6.15935564153758,,,,
8220DB000540,540.0,Lonsdale,,53.3813362763679,-6.1551179435333,,,,
8220DB000541,541.0,James Larkin Road,,53.3818727077496,-6.15202806844666,,,,
8220DB000542,542.0,Strand View,,53.3836619200447,-6.14626794992908,,,,
8220DB000591,591.0,Kilbarrack Road,,53.3841675899781,-6.14468248664168,,,,
8220DB000592,592.0,James Larkin Road,,53.3827330098096,-6.14838287246945,,,,
8220DB000593,593.0,Howth Road,,53.3818486949688,-6.15163825716418,,,,
8220DB000594,594.0,Lonsdale,,53.3811633655567,-6.15556136213264,,,,
8220DB000595,595.0,Foxfield,,53.3805999504412,-6.15923856299832,,,,
8220DB000596,596.0,Shieling Square,,53.3802528433238,-6.16179397207691,,,,
8220DB000597,597.0,Maywood,,53.3798981358401,-6.16561235536735,,,,
8220DB000598,598.0,Avondale Park,,53.3798466295595,-6.16928237742033,,,,
8220DB000599,599.0,Raheny Library,,53.3803003189176,-6.17308107835305,,,,
8220DB000600,600.0,Raheny,,53.3802479252381,-6.17611981052539,,,,
8220DB000601,601.0,Cill Eanna,,53.3792234833174,-6.17966599663793,,,,
8220DB000602,602.0,Wade's Avenue,,53.3781425247901,-6.1830490710099,,,,
8220DB000603,603.0,Ennafort Park,,53.3773821590087,-6.18742542966496,,,,
8220DB000604,604.0,All Saints Road,,53.3763546440093,-6.19079085973447,,,,
8220DB000605,605.0,The Meadows,,53.375666662106,-6.19343532660645,,,,
8220DB000606,606.0,St Brigid's Church,,53.3747089784008,-6.19786466034239,,,,
8220DB000607,607.0,The Demesne,,53.372515779991,-6.20203021371956,,,,
8220DB000608,608.0,Killester,,53.3710783844633,-6.20446531476562,,,,
8220DB000609,609.0,Castle Grove,,53.3698375440776,-6.20862025648968,,,,
8220DB000610,610.0,Ashbrook,,53.3683623013066,-6.21153745527438,,,,
8220DB000611,611.0,Hollybrook Park,,53.366754679119,-6.21883292211135,,,,
8220DB000612,612.0,Copeland Avenue,,53.3657562265179,-6.2242091299833,,,,
8220DB000613,613.0,Marino Crescent Park,,53.3646174709891,-6.22681099838462,,,,
8220DB000614,614.0,Fairview,,53.363284,-6.234544,,,,
8220DB000616,616.0,North Strand Fire Station,,53.3598447138031,-6.2395548963026,,,,
8220DB000617,617.0,Strandville Avenue,,53.357894521071,-6.24200909637447,,,,
8220DB000618,618.0,Newcomen Bridge,,53.355807,-6.245148,,,,
8220DB000619,619.0,Amiens Street,,53.354198,-6.247095,,,,
8220DB000620,620.0,Talbot Street,,53.3509610944412,-6.25277955690348,,,,
8220DB000621,621.0,Talbot Street,,53.3505177759151,-6.25626764847564,,,,
8220DB000624,624.0,Ribh Road,,53.38018530713,-6.18912523804651,,,,
8220DB000625,625.0,Lein Gardens,,53.3817875653825,-6.18632129728301,,,,
8220DB000626,626.0,Edenmore Green,,53.3844945184151,-6.18405641915907,,,,
8220DB000627,627.0,Edenmore Green,,53.385407017017,-6.18200303261637,,,,
8220DB000628,628.0,Edenmore Grove,,53.3869549963204,-6.18390657920362,,,,
8220DB000629,629.0,Edenmore Drive,,53.3865279695229,-6.18596942471494,,,,
8220DB000630,630.0,Springdale Road,,53.3872439958511,-6.18932175227289,,,,
8220DB000633,633.0,Tonlegee Drive,,53.3896443404821,-6.18935518044481,,,,
8220DB000634,634.0,Tonlegee Avenue,,53.3902751966525,-6.18414110921006,,,,
8220DB000635,635.0,Glenwood Road,,53.3890225360658,-6.18392380127648,,,,
8220DB000636,636.0,Glenfarne Road,,53.3888586595165,-6.18674234809099,,,,
8220DB000637,637.0,Springdale Road,,53.3877918262024,-6.1898848542452,,,,
8220DB000638,638.0,Edenmore Avenue,,53.3867623213242,-6.18837999607754,,,,
8220DB000639,639.0,Edenmore Park,,53.3863330185323,-6.18674446075596,,,,
8220DB000640,640.0,Edenmore Grove,,53.3867053851996,-6.18345113980026,,,,
8220DB000641,641.0,Edenmore Green,,53.3858263828451,-6.18239108146194,,,,
8220DB000642,642.0,Edenmore Green,,53.384731848305,-6.18311422897616,,,,
8220DB000643,643.0,St Josephs Hospital,,53.3835661358811,-6.1838854683411,,,,
8220DB000644,644.0,Lein Park,,53.3823625142317,-6.18571057664617,,,,
8220DB000645,645.0,Ribh Road,,53.3801688019244,-6.18862988048628,,,,
8220DB000649,649.0,All Saints Road,,53.3762836659106,-6.18966656708744,,,,
8220DB000650,650.0,Sybil Hill Avenue,,53.3754028537338,-6.18552548323385,,,,
8220DB000651,651.0,All Saints Park,,53.3754794507715,-6.1799309090613,,,,
8220DB000653,653.0,Raheny,,53.3794630466244,-6.17534163896221,,,,
8220DB000654,654.0,Watermill Road,,53.379210075798,-6.17702098083078,,,,
8220DB000655,655.0,Watermill Drive,,53.3777386713847,-6.17543040232881,,,,
8220DB000656,656.0,St Anne's Avenue,,53.3764702007961,-6.17770919175966,,,,
8220DB000657,657.0,All Saints Park,,53.3755453978778,-6.17895111704479,,,,
8220DB000658,658.0,Waterfall Road,,53.3749800484815,-6.18313861991685,,,,
8220DB000659,659.0,Sybil Hill Avenue,,53.3752374406804,-6.1858782134899,,,,
8220DB000662,662.0,Clanmoyle Road,,53.3738704165791,-6.21262927512666,,,,
8220DB000664,664.0,Donnycarney Church,,53.3747192481248,-6.21950756213934,,,,
8220DB000665,665.0,Casino Park,,53.3724663177933,-6.22212646122623,,,,
8220DB000666,666.0,Mount Temple School,,53.3702331241213,-6.22426334784653,,,,
8220DB000667,667.0,Brian Road,,53.3679816454659,-6.22698684651141,,,,
8220DB000668,668.0,Marino Crescent Park,,53.364633,-6.229263,,,,
8220DB000669,669.0,Malahide Road,,53.3663170047508,-6.22867890531785,,,,
8220DB000670,670.0,Mount Temple School,,53.3689561148085,-6.22602966389211,,,,
8220DB000671,671.0,Nazareth House,,53.3707168419685,-6.22415305315518,,,,
8220DB000672,672.0,Donnycarney Road,,53.3734663500286,-6.22107782075337,,,,
8220DB000674,674.0,Parnell Park,,53.3746860705057,-6.21608209235965,,,,
8220DB000709,709.0,St Brigid's Church,,53.3750380598504,-6.19703913201504,,,,
8220DB000722,722.0,Raheny Station,,53.3811136996508,-6.17572202474466,,,,
8220DB000723,723.0,Raheny Road,,53.3841517880034,-6.17572742205128,,,,
8220DB000724,724.0,Grange Park Road,,53.3869554629401,-6.17451001140907,,,,
8220DB000725,725.0,Ardscoil La Salle,,53.3895723720634,-6.17048881126756,,,,
8220DB000726,726.0,Grange Road,,53.3917483514218,-6.16761378066966,,,,
8220DB000727,727.0,Ardara Avenue,,53.3937048518631,-6.16683802482072,,,,
8220DB000728,728.0,Holy Trinity Church,,53.3953162106826,-6.16349059472377,,,,
8220DB000729,729.0,Holy Trinity NS,,53.3965584587976,-6.16244459517592,,,,
8220DB000730,730.0,Grangemore Road,,53.3981666977284,-6.16181886879421,,,,
8220DB000738,738.0,Grange Road,,53.3976003550304,-6.16181320548643,,,,
8220DB000739,739.0,Holy Trinity Church,,53.3951450858597,-6.16346788917263,,,,
8220DB000740,740.0,Ardara Avenue,,53.3931412776214,-6.16701261526443,,,,
8220DB000741,741.0,St Donagh's Road,,53.3919077252208,-6.16745657119052,,,,
8220DB000742,742.0,Raheny Road,,53.3898234138452,-6.16986158795113,,,,
8220DB000743,743.0,Woodbine Park,,53.3880248638023,-6.17273523820562,,,,
8220DB000744,744.0,Belmont Park,,53.3850921988006,-6.17492048437068,,,,
8220DB000745,745.0,Raheny Station,,53.381343565605,-6.17547167673029,,,,
8220DB000746,746.0,Kildare Street,,53.3401536166372,-6.25559428153351,,,,
8220DB000747,747.0,Kildare Street,,53.3399308030255,-6.25572351873597,,,,
8220DB000748,748.0,Huguenot Cemetery,,53.3385095343946,-6.25503066600718,,,,
8220DB000749,749.0,Baggot Street Lower,,53.3376207009507,-6.25080214718478,,,,
8220DB000750,750.0,Fitzwilliam Street,,53.3365710800751,-6.24848750327114,,,,
8220DB000751,751.0,Herbert Street,,53.3353205479248,-6.24657163552756,,,,
8220DB000752,752.0,Baggot Street Upper,,53.333745,-6.244496,,,,
8220DB000753,753.0,Waterloo Road,,53.3324533902693,-6.24352105457144,,,,
8220DB000754,754.0,Burlington Road,,53.3307837823714,-6.2442803272738,,,,
8220DB000755,755.0,Wellington Lane,,53.3288280456955,-6.2451413679877,,,,
8220DB000756,756.0,Royal Hospital,,53.3263997617783,-6.2425987467031,,,,
8220DB000757,757.0,Donnybrook Village,,53.3240813371564,-6.23958650985938,,,,
8220DB000758,758.0,Victoria Avenue,,53.3226869429527,-6.23767738043155,,,,
8220DB000759,759.0,Donnybrook Stadium,,53.3203488508422,-6.23334551683732,,,,
8220DB000760,760.0,Donnybrook Church,,53.3183301872864,-6.2305619559304,,,,
8220DB000761,761.0,Teresian School,,53.3161004007968,-6.22748721370701,,,,
8220DB000762,762.0,RTE,,53.3145170648478,-6.22437094406494,,,,
8220DB000763,763.0,Belfield Court,,53.3123201447816,-6.22110031908025,,,,
8220DB000769,769.0,Belfield Court,,53.311901092315,-6.22132785711802,,,,
8220DB000770,770.0,RTE,,53.3146361875598,-6.22573181130972,,,,
8220DB000771,771.0,Teresian School,,53.3158800692413,-6.22778152242804,,,,
8220DB000772,772.0,Donnybrook Garage,,53.3184852574538,-6.23132106360093,,,,
8220DB000773,773.0,Donnybrook Road,,53.3199163484772,-6.23327331931081,,,,
8220DB000774,774.0,Donnybrook Garda Station,,53.3216121235616,-6.23549999641974,,,,
8220DB000775,775.0,Donnybrook Village,,53.3234897098036,-6.23908544721613,,,,
8220DB000776,776.0,Morehampton Terrace,,53.3254792402812,-6.24173582106075,,,,
8220DB000777,777.0,Royal Hospital,,53.32695,-6.24369,,,,
8220DB000779,779.0,Waterloo Road,,53.3286887363292,-6.24544736264854,,,,
8220DB000780,780.0,Burlington Road,,53.3310633511681,-6.24434391821207,,,,
8220DB000781,781.0,Baggot Street,,53.332626271424,-6.24366410261763,,,,
8220DB000782,782.0,Baggot Street Upper,,53.3335838144569,-6.24460076754333,,,,
8220DB000783,783.0,Baggot Street Lower,,53.3353085373743,-6.24697756396985,,,,
8220DB000784,784.0,Fitzwilliam Street,,53.3364567280898,-6.24865737146514,,,,
8220DB000785,785.0,Pembroke Street Lower,,53.3371058976017,-6.25185937348663,,,,
8220DB000786,786.0,Embassy of Malta,,53.33513,-6.25612,,,,
8220DB000790,790.0,Stephen's Green Nth,,53.339316,-6.258367,,,,
8220DB000791,791.0,Stephen's Green Nth,,53.3388796212322,-6.25698283049026,,,,
8220DB000792,792.0,Dawson Street,,53.3404489881504,-6.25858580845119,,,,
8220DB000793,793.0,Dawson Street,,53.3408597860288,-6.25840386924731,,,,
8220DB000795,795.0,Berkeley Road,,53.3587400432977,-6.26972427815325,,,,
8220DB000796,796.0,Berkeley Road,,53.3600182144434,-6.26985278581192,,,,
8220DB000797,797.0,Phibsborough PO,,53.3607260028205,-6.27466216472105,,,,
8220DB000798,798.0,Rathdown Road,,53.3594766361423,-6.27964070094016,,,,
8220DB000799,799.0,Charleville Road,,53.3588687100101,-6.28173855104546,,,,
8220DB000800,800.0,Annamore Parade,,53.3580651515231,-6.2846104289481,,,,
8220DB000801,801.0,Annamore Road,,53.3574704998113,-6.2876390824353,,,,
8220DB000802,802.0,Drumalee,,53.3564983224928,-6.29129872279033,,,,
8220DB000803,803.0,Oxmantown Road,,53.3547130307104,-6.29404421386,,,,
8220DB000804,804.0,O'Devaney Gardens,,53.3536849851854,-6.29569268053352,,,,
8220DB000807,807.0,Phoenix Park,,53.3515565121154,-6.29770038608451,,,,
8220DB000808,808.0,North Circular Road,,53.3539946695196,-6.29534982649487,,,,
8220DB000809,809.0,Marlborough Road,,53.355260739805,-6.29337634624951,,,,
8220DB000810,810.0,Ellesmere Avenue,,53.3570998601571,-6.28999764127672,,,,
8220DB000811,811.0,Annamore Road,,53.3575671567867,-6.28748496819667,,,,
8220DB000812,812.0,Annamore Parade,,53.3582663606523,-6.284226743738,,,,
8220DB000813,813.0,Charleville Road,,53.3591900460972,-6.28095937438322,,,,
8220DB000814,814.0,St Peter's Church,,53.3605400151369,-6.27609704929995,,,,
8220DB000817,817.0,Mater Hospital,,53.3596462179679,-6.2696124384477,,,,
8220DB000818,818.0,O'Connell Avenue,,53.3584811208081,-6.26922394483134,,,,
8220DB000819,819.0,Blessington Street,,53.3563040208489,-6.26599198569773,,,,
8220DB000820,820.0,Carnlough Road,,53.361967795144,-6.29351397958427,,,,
8220DB000821,821.0,Drumcliffe Road,,53.3645519035043,-6.29383143635442,,,,
8220DB000822,822.0,Mulroy Road,,53.3671206776262,-6.29182032110431,,,,
8220DB000823,823.0,Kilkieran Road,,53.3682351539493,-6.29118965054413,,,,
8220DB000824,824.0,Bannow Road,,53.3697478518934,-6.29326309496119,,,,
8220DB000825,825.0,St Finbar's Road,,53.3704294399324,-6.29693282591372,,,,
8220DB000826,826.0,Carnlough Road,,53.371217854378,-6.30116950755918,,,,
8220DB000827,827.0,Ventry Park,,53.3712939490655,-6.30399186938366,,,,
8220DB000828,828.0,Broombridge Station,,53.3710448241108,-6.29974867792342,,,,
8220DB000829,829.0,St Finbar's Road,,53.3703968945592,-6.29591219523143,,,,
8220DB000830,830.0,Bannow Road,,53.3696243716567,-6.29217098015254,,,,
8220DB000831,831.0,Mulroy Road,,53.367661969108,-6.29133281290905,,,,
8220DB000832,832.0,Drumcliffe Road,,53.3636294546039,-6.29406363489174,,,,
8220DB000833,833.0,Swilly Road,,53.3617761473196,-6.29331128383968,,,,
8220DB000834,834.0,Binns Bridge,,53.3619754108367,-6.26042763798587,,,,
8220DB000835,835.0,St Brigid's Road Lower,,53.3626280166348,-6.26327096161368,,,,
8220DB000836,836.0,Claude Road,,53.3632915018052,-6.26624916236245,,,,
8220DB000837,837.0,David Road,,53.3637784077115,-6.26821283704865,,,,
8220DB000838,838.0,Whitworth Road,,53.3643193961163,-6.27018939098142,,,,
8220DB000839,839.0,David Road,,53.3637449204179,-6.26776341254,,,,
8220DB000840,840.0,Claude Road,,53.3632433495627,-6.26540966607288,,,,
8220DB000841,841.0,St Patrick's Road,,53.3621221995284,-6.26063201536313,,,,
8220DB000842,842.0,Stephen's Green East,,53.3372519750062,-6.25631338920498,,,,
8220DB000843,843.0,Stephen's Green East,,53.3370024314213,-6.2564587206996,,,,
8220DB000845,845.0,Leeson Street Lower,,53.3354534454643,-6.25625161826541,,,,
8220DB000846,846.0,Fitzwilliam Place,,53.3334537329999,-6.25411090847857,,,,
8220DB000847,847.0,Leeson Street Upper,,53.3316014451627,-6.25221961965177,,,,
8220DB000848,848.0,Sussex Road,,53.3297279908157,-6.24888799835488,,,,
8220DB000849,849.0,Appian Way,,53.3278982725888,-6.24792700914133,,,,
8220DB000850,850.0,Chelmsford Road,,53.3260857395309,-6.25119903116797,,,,
8220DB000851,851.0,Ranelagh,,53.3250997052106,-6.25322101602942,,,,
8220DB000852,852.0,Ranelagh,,53.3244292664921,-6.25285808537085,,,,
8220DB000853,853.0,Sandford Road,,53.3225927700056,-6.24836957707265,,,,
8220DB000854,854.0,Larch Grove,,53.3216316712779,-6.24657756321518,,,,
8220DB000855,855.0,Sandford Road,,53.3193022984556,-6.24281536591722,,,,
8220DB000856,856.0,Clonskeagh Road,,53.3176551118152,-6.24082667970819,,,,
8220DB000857,857.0,Clonskeagh Hospital,,53.3165673800964,-6.23837983033545,,,,
8220DB000858,858.0,Clonskeagh,,53.3140944728122,-6.2383015721788,,,,
8220DB000881,881.0,Clonskeagh,,53.3145635684102,-6.23841733156698,,,,
8220DB000882,882.0,Clonskeagh Hospital,,53.3167046565363,-6.23915467649306,,,,
8220DB000883,883.0,Eglinton Road,,53.3176851573292,-6.24103558331433,,,,
8220DB000884,884.0,Norwood Park,,53.319996991214,-6.24421284442794,,,,
8220DB000885,885.0,Hollybank Avenue Lower,,53.3212589673318,-6.24629262123041,,,,
8220DB000886,886.0,Merton Drive,,53.3225973962227,-6.24868463259583,,,,
8220DB000887,887.0,Ranelagh,,53.3242077457399,-6.25246180680162,,,,
8220DB00089,89.0,Lambay Road,,53.377939,-6.261644,,,,
8220DB000893,893.0,Cowper Road,,53.3160725163363,-6.2591581800642,,,,
8220DB000894,894.0,Cowper Road,,53.3151931375335,-6.26419198051229,,,,
8220DB000895,895.0,Palmeston Villas,,53.3139322642579,-6.26401801846629,,,,
8220DB000896,896.0,Palmerston Park,,53.3133721496302,-6.26135424684808,,,,
8220DB000897,897.0,Palmerston Road,,53.314299620262,-6.25838984601839,,,,
8220DB000903,903.0,Chelmsford Road,,53.3255834292541,-6.25249565673744,,,,
8220DB000904,904.0,Appian Way,,53.3274174409115,-6.24884751574078,,,,
8220DB000906,906.0,Leeson Street Upper,,53.3288107659722,-6.24763437727541,,,,
8220DB000907,907.0,Dartmouth Road,,53.3297193588566,-6.25075010860467,,,,
8220DB000908,908.0,Grand Parade,,53.3311542855348,-6.25237303421842,,,,
8220DB000909,909.0,Fitzwilliam Place,,53.333147659918,-6.25407836385529,,,,
8220DB000956,956.0,Naomh Barróg GAA,,53.3898318021104,-6.15290114572838,,,,
8220DB000958,958.0,St. Donagh's,,53.3909165331479,-6.16378528809522,,,,
8220DB000959,959.0,Grange Road,,53.3910184657006,-6.16690837598947,,,,
8220DB000960,960.0,Tonlegee Road,,53.3911576199014,-6.17187930562012,,,,
8220DB000961,961.0,Millwood Villas,,53.3910568299901,-6.17645454975126,,,,
8220DB000962,962.0,Limewood,,53.3907949286211,-6.18285597422987,,,,
8220DB000963,963.0,Rathvale,,53.3905102717854,-6.18659695896856,,,,
8220DB000964,964.0,St John's Church,,53.3900734007662,-6.1921636504984,,,,
8220DB000965,965.0,Malahide Road,,53.3888900839133,-6.19652888129107,,,,
8220DB000966,966.0,Oscar Traynor Road,,53.3912154012183,-6.20291104884243,,,,
8220DB000967,967.0,Coolock Drive,,53.3922920610153,-6.20636914233897,,,,
8220DB000968,968.0,Armstrong Walk,,53.3937589536623,-6.21068316280392,,,,
8220DB000969,969.0,Northside SC,,53.3956824564158,-6.2154896382204,,,,
8220DB000972,972.0,Aulden Grange,,53.3969960428841,-6.23492379932213,,,,
8220DB000979,979.0,St Canice's GNS,,53.3899538085893,-6.29710063600173,,,,
8220DB000980,980.0,Finglas Sports Centre,,53.389804569147,-6.30303046268457,,,,
8220DB000981,981.0,Finglas Garda Station,,53.3897809067944,-6.30706083246079,,,,
8220DB000983,983.0,Mellowes Road,,53.3901416743196,-6.31095569222063,,,,
8220DB000984,984.0,Finglas Garda Station,,53.3899113880259,-6.30675494955138,,,,
8220DB000985,985.0,Finglas Sports Centre,,53.3899247513532,-6.30389772523613,,,,
8220DB000987,987.0,Finglas,,53.390219926862,-6.29937538551077,,,,
8220DB000988,988.0,St Canice's GNS,,53.3898902365416,-6.29579510810412,,,,
8220DB000993,993.0,Astro Park,,53.397702596997,-6.22922517485579,,,,
8220DB000997,997.0,Northside SC,,53.3941665688856,-6.21149309335645,,,,
8220DB000998,998.0,Armstrong Walk,,53.3935747678449,-6.20978868590317,,,,
8220DB000999,999.0,Coolock Drive,,53.3922410515282,-6.20596530798649,,,,
8220DB001000,1000.0,Beechpark Avenue,,53.39098307668,-6.20180818492748,,,,
8220DB001001,1001.0,Brookville Crescent,,53.3900811211552,-6.19921499123031,,,,
8220DB001002,1002.0,Tonlegee Road,,53.3891754998218,-6.19519371485572,,,,
8220DB001003,1003.0,St John's Church,,53.3902995343274,-6.19107150115658,,,,
8220DB001004,1004.0,Rathvale,,53.3906381577796,-6.18614044923749,,,,
8220DB001005,1005.0,Limewood,,53.3909514065877,-6.1819170834231,,,,
8220DB001006,1006.0,Millwood Villas,,53.3911703560513,-6.17682559538368,,,,
8220DB001007,1007.0,Millbrook Drive,,53.3912462839647,-6.17238672965418,,,,
8220DB001008,1008.0,Kilbarrack Road,,53.3911267142898,-6.16693379574114,,,,
8220DB001009,1009.0,St. Donagh's Road,,53.3910890756575,-6.16448455072243,,,,
8220DB001012,1012.0,Naomh Barróg GAA,,53.3902500117155,-6.15262742856302,,,,
8220DB001013,1013.0,Earlsfort Terrace,,53.334181,-6.258346,,,,
8220DB001015,1015.0,Adelaide Road,,53.3327303534168,-6.25996635506886,,,,
8220DB001016,1016.0,South Richmond Street,,53.331061,-6.264386,,,,
8220DB001017,1017.0,Rathmines Road Lower,,53.329369,-6.264322,,,,
8220DB001018,1018.0,St Mary's College,,53.3275854590911,-6.26464974527373,,,,
8220DB001019,1019.0,Military Road,,53.32643,-6.26483,,,,
8220DB001020,1020.0,Rathmines,,53.32508,-6.26508,,,,
8220DB001021,1021.0,Rathmines Road Upper,,53.3213802466074,-6.26565212597859,,,,
8220DB001022,1022.0,Summerville Park,,53.3195217438255,-6.26455667416163,,,,
8220DB001023,1023.0,Rathmines Close,,53.3170461890185,-6.26491228899521,,,,
8220DB001024,1024.0,Frankfort Avenue,,53.3158523430749,-6.26502075611147,,,,
8220DB001025,1025.0,Trinity Hall,,53.3115998654594,-6.26247682304637,,,,
8220DB001026,1026.0,Orwell Park,,53.3091057707857,-6.26032708219741,,,,
8220DB001027,1027.0,Dodder Walk,,53.3087379400331,-6.25791094112817,,,,
8220DB001028,1028.0,South Hill,,53.3084991105588,-6.25571468112149,,,,
8220DB001062,1062.0,South Hill,,53.3082596341802,-6.2553192658689,,,,
8220DB001063,1063.0,Dodder Walk,,53.3085720815395,-6.25886311823078,,,,
8220DB001064,1064.0,Dartry Road,,53.3094291383453,-6.260929220589,,,,
8220DB001065,1065.0,Trinity Hall,,53.3118290249002,-6.26278268022841,,,,
8220DB001066,1066.0,Rathmines Road Upper,,53.3137534805829,-6.26408530832738,,,,
8220DB001067,1067.0,Rathmines Close,,53.3170507712282,-6.26522730644198,,,,
8220DB001068,1068.0,Church Avenue,,53.320558444719,-6.26538523670884,,,,
8220DB001069,1069.0,Swan Centre,,53.3232852636115,-6.26561989541274,,,,
8220DB001070,1070.0,Rathmines,,53.3249801839816,-6.26535598291684,,,,
8220DB001071,1071.0,St Mary's College,,53.32729,-6.26485,,,,
8220DB001072,1072.0,South Richmond Street,,53.3310269732592,-6.26458511395504,,,,
8220DB001074,1074.0,Harcourt Luas,,53.334001,-6.261742,,,,
8220DB001076,1076.0,Swan Centre,,53.3231305919114,-6.26549106260882,,,,
8220DB001077,1077.0,Rathmines Garda Station,,53.321572988534,-6.2665449849921,,,,
8220DB001078,1078.0,Rathgar Place,,53.3194127648938,-6.26880907035696,,,,
8220DB001079,1079.0,Frankfort Avenue,,53.3166546241928,-6.27075187426881,,,,
8220DB001080,1080.0,Auburn Villas,,53.3149091987178,-6.27187306349646,,,,
8220DB001081,1081.0,Rathgar Village,,53.3126497028562,-6.27349517348773,,,,
8220DB001082,1082.0,Terenure Road East,,53.3116759487029,-6.27577063203852,,,,
8220DB001083,1083.0,Brighton Road,,53.311145561259,-6.27825325307526,,,,
8220DB001085,1085.0,St Joseph's BNS,,53.3100994852247,-6.28237731397305,,,,
8220DB001086,1086.0,Terenure Road West,,53.3096695705149,-6.28560608300463,,,,
8220DB001087,1087.0,Greenlea Road,,53.3103351137685,-6.28939126007519,,,,
8220DB001088,1088.0,Parkmore Drive,,53.3109735887836,-6.29317763255717,,,,
8220DB001089,1089.0,Lavarna Grove,,53.3116555855459,-6.29750266095148,,,,
8220DB001090,1090.0,Kimmage Road West,,53.3121038877658,-6.30057644060381,,,,
8220DB001091,1091.0,Whitehall Road,,53.3124406081629,-6.30529057738079,,,,
8220DB001117,1117.0,Terenure Road West,,53.3118906498583,-6.29822868798702,,,,
8220DB001118,1118.0,Hazelbrook Road,,53.3113669927789,-6.29491782827779,,,,
8220DB001119,1119.0,Parkmore Drive,,53.3109356902408,-6.29241376344752,,,,
8220DB001120,1120.0,Terenure Garda Station,,53.3101981052294,-6.28798605930363,,,,
8220DB001121,1121.0,Templeogue Road,,53.3090015976368,-6.28540774793681,,,,
8220DB001122,1122.0,Rathdown Park,,53.3072196342858,-6.28837535252904,,,,
8220DB001123,1123.0,Lakelands Park,,53.3055770247341,-6.29103703014007,,,,
8220DB001124,1124.0,Terenure College,,53.3041728176707,-6.2934038975232,,,,
8220DB001159,1159.0,Bushy Park House,,53.3023902202094,-6.29634084228484,,,,
8220DB001160,1160.0,Terenure College,,53.3043935295018,-6.29312500171527,,,,
8220DB001161,1161.0,Lakelands Park,,53.3060631361465,-6.29046240113909,,,,
8220DB001162,1162.0,Rathdown Park,,53.3077322505964,-6.2877695971447,,,,
8220DB001163,1163.0,Terenure Library,,53.3088733210487,-6.28586309179703,,,,
8220DB001164,1164.0,Terenure Road East,,53.3104116361098,-6.28158440093591,,,,
8220DB001165,1165.0,Brighton Road,,53.3117124365704,-6.27642950385614,,,,
8220DB001166,1166.0,Winton Avenue,,53.3138905067936,-6.27290478405396,,,,
8220DB001167,1167.0,Garville Avenue,,53.3159449091946,-6.27139594843828,,,,
8220DB001168,1168.0,Spire View Lane,,53.3179291684206,-6.27000988256434,,,,
8220DB001169,1169.0,Rathmines Park,,53.3200562645615,-6.26855785990236,,,,
8220DB001170,1170.0,Rathmines Garda Station,,53.3216895475244,-6.26652524878686,,,,
8220DB001171,1171.0,Gardiner Street Lower,,53.3503176870253,-6.2542629490582,,,,
8220DB001172,1172.0,Railway Street,,53.3517433497793,-6.25525621732706,,,,
8220DB001173,1173.0,Gardiner Street Lower,,53.3537055683594,-6.25667832329383,,,,
8220DB001174,1174.0,Mountjoy Square West,,53.3561865814529,-6.25854512541131,,,,
8220DB001175,1175.0,Gardiner Street Upper,,53.358413194465,-6.26084318209768,,,,
8220DB001176,1176.0,Coolock Lane Park,,53.3993550470634,-6.22187780324994,,,,
8220DB001177,1177.0,Clonshaugh Industrial Estate West,,53.4008973630828,-6.22525748280848,,,,
8220DB001178,1178.0,Clonshaugh Industrial Estate North,,53.4034534096905,-6.21884924282634,,,,
8220DB001179,1179.0,Clonshaugh Industrial Estate East,,53.3999311495912,-6.21892118309902,,,,
8220DB001184,1184.0,Talbot Street,,53.3508599227592,-6.25385022800029,,,,
8220DB001185,1185.0,Oak Road,,53.3763670141117,-6.22151304646931,,,,
8220DB001186,1186.0,Belton Park Road,,53.3776431058353,-6.2263299378604,,,,
8220DB001187,1187.0,Celtic Park Road,,53.3786075086935,-6.23135544113251,,,,
8220DB001188,1188.0,Grace Park Heights,,53.3800184911121,-6.23559608319276,,,,
8220DB001190,1190.0,Grace Park Heights,,53.3801561172397,-6.23578580779391,,,,
8220DB001191,1191.0,Grace Park Meadows,,53.379217188348,-6.23307384015298,,,,
8220DB001192,1192.0,Celtic Park Road,,53.3786331967642,-6.23066293111023,,,,
8220DB001193,1193.0,The Yard,,53.3779921991309,-6.22744276884898,,,,
8220DB001194,1194.0,Belton Park Road,,53.3775262086269,-6.22511728190611,,,,
8220DB001195,1195.0,Oak Road,,53.3763899322009,-6.22124153964156,,,,
8220DB001196,1196.0,Elm Mount Road,,53.3777875069851,-6.2149152956023,,,,
8220DB001197,1197.0,Killester Avenue,,53.3792322771511,-6.21175833300343,,,,
8220DB001198,1198.0,Mornington Grove,,53.3825121951907,-6.20691559067282,,,,
8220DB001199,1199.0,Mask Avenue,,53.3849844627771,-6.20276761448293,,,,
8220DB001200,1200.0,Coolock Village,,53.3869626486611,-6.20103048909789,,,,
8220DB001201,1201.0,Brookville Crescent,,53.3907898125494,-6.19614784293642,,,,
8220DB001202,1202.0,Newtown Cottages,,53.3925013826625,-6.19342905043287,,,,
8220DB001203,1203.0,Newtown Road,,53.3967263536286,-6.18753567030061,,,,
8220DB001205,1205.0,Clare Hall,,53.4015026048782,-6.18185822928644,,,,
8220DB001218,1218.0,Belcamp Lane,,53.3997058969218,-6.18428091971538,,,,
8220DB001219,1219.0,Danieli Road,,53.3813021270883,-6.20833439206846,,,,
8220DB001220,1220.0,Killester Avenue,,53.3787625062934,-6.21219890153818,,,,
8220DB001221,1221.0,Mayfield Park,,53.3768165000717,-6.21609825408438,,,,
8220DB001222,1222.0,Ardlea Road,,53.384066161835,-6.20685028183392,,,,
8220DB001223,1223.0,Chanel Avenue,,53.3852506198767,-6.20851435239852,,,,
8220DB001224,1224.0,Maryfield Crescent,,53.3866441577942,-6.21093649115354,,,,
8220DB001225,1225.0,Maryfield Drive,,53.3868593792141,-6.21390426931253,,,,
8220DB001226,1226.0,Ardmore Drive,,53.3885824619164,-6.21492967615918,,,,
8220DB001227,1227.0,Castlekevin Road,,53.3911373107638,-6.2150783660515,,,,
8220DB001228,1228.0,Kilbarron Road,,53.3924289764997,-6.21851273726687,,,,
8220DB001229,1229.0,Kilbarron Drive,,53.394311601171,-6.22542628929815,,,,
8220DB001231,1231.0,Castletimon Road,,53.3954889982924,-6.22784342643998,,,,
8220DB001232,1232.0,Castletimon Park,,53.3952854835247,-6.23048341001448,,,,
8220DB001233,1233.0,Castletimon Drive,,53.3943619873989,-6.23124350090559,,,,
8220DB001234,1234.0,Ballyshannon Avenue,,53.3946878729367,-6.23261339665844,,,,
8220DB001235,1235.0,Kilbarron Road,,53.3947366846993,-6.22560408418954,,,,
8220DB001237,1237.0,Cromcastle Avenue,,53.3926786799977,-6.21898347230117,,,,
8220DB001238,1238.0,Kilmore Avenue,,53.3915662233588,-6.21491005695051,,,,
8220DB001239,1239.0,St John of Gods NS,,53.389004189854,-6.2148819578447,,,,
8220DB001240,1240.0,Maryfield Crescent,,53.3868184280279,-6.21116973233954,,,,
8220DB001241,1241.0,Chanel Avenue,,53.3858794293685,-6.20908930804697,,,,
8220DB001242,1242.0,Ardbeg Road,,53.3844919489036,-6.20707292281256,,,,
8220DB001243,1243.0,Greencastle Avenue,,53.3949003131464,-6.19991374132292,,,,
8220DB001244,1244.0,Cromcastle Green,,53.392907241618,-6.22044750297321,,,,
8220DB001245,1245.0,Glin Avenue,,53.3979972686887,-6.20621940955621,,,,
8220DB001246,1246.0,Kilbarron Park,,53.3934932334612,-6.22297928856435,,,,
8220DB001247,1247.0,Greencastle Road,,53.3950810945047,-6.19998129722481,,,,
8220DB001248,1248.0,Coolock Industrial Estate,,53.3929893358591,-6.19716752337167,,,,
8220DB001249,1249.0,Coolock Drive,,53.3951809648939,-6.20124021736039,,,,
8220DB001250,1250.0,Bunratty Road,,53.3937390060985,-6.20755634582158,,,,
8220DB001251,1251.0,St Luke's Church,,53.3934573359087,-6.22237931759761,,,,
8220DB001252,1252.0,Kilmore Road,,53.3936380322998,-6.21461282858834,,,,
8220DB001253,1253.0,Tranquility Grove,,53.3938639430705,-6.21469359247894,,,,
8220DB001254,1254.0,Bunratty Road,,53.3951173598288,-6.21136299643065,,,,
8220DB001255,1255.0,Adare Park,,53.3943535024667,-6.20897407318871,,,,
8220DB001256,1256.0,Bunratty Avenue,,53.3936309457702,-6.20694437999343,,,,
8220DB001258,1258.0,Priorswood Road,,53.3981874224965,-6.19082713583414,,,,
8220DB001259,1259.0,The Link Road,,53.3985904097502,-6.19488548450884,,,,
8220DB001260,1260.0,Ferrycarrig Green,,53.4001778029071,-6.19881868347104,,,,
8220DB001262,1262.0,Moat Avenue,,53.4020042292112,-6.20490781615753,,,,
8220DB001265,1265.0,Marigold Avenue,,53.3982215297187,-6.1907053813919,,,,
8220DB001266,1266.0,Priorswood Road,,53.4020554115132,-6.20472518436231,,,,
8220DB001267,1267.0,Ferrycarrig Park,,53.4008555065952,-6.20024887014072,,,,
8220DB001268,1268.0,Belcamp Avenue,,53.3998942675419,-6.19789824293482,,,,
8220DB001269,1269.0,Marigold Road,,53.3984289595154,-6.19371931703884,,,,
8220DB001270,1270.0,Malahide Road,,53.3964970026771,-6.18722962380566,,,,
8220DB001272,1272.0,Newtown Cottages,,53.39288238223,-6.19187918573742,,,,
8220DB001273,1273.0,Coolock Leisureplex,,53.3911092146002,-6.19527728871218,,,,
8220DB001274,1274.0,St Brendans Church,,53.3889388170293,-6.19797019366682,,,,
8220DB001275,1275.0,Mask Avenue,,53.3855857653299,-6.20211085795644,,,,
8220DB001276,1276.0,Mask Park,,53.3843305541122,-6.20291542866154,,,,
8220DB001277,1277.0,Mornington Grove,,53.3826814602055,-6.20621696361687,,,,
8220DB001278,1278.0,College Green,,53.3442366224341,-6.26130011810005,,,,
8220DB001279,1279.0,College Green,,53.3442604935958,-6.26170466649104,,,,
8220DB001280,1280.0,McKelvey Avenue,,53.4001962883489,-6.30314329259755,,,,
8220DB001282,1282.0,South Great George's Street,,53.3423417958791,-6.26450108272731,,,,
8220DB001283,1283.0,South Great George's Street,,53.3418087219064,-6.26492822950034,,,,
8220DB001284,1284.0,Redmond's Hill,,53.3381283509666,-6.26587355723325,,,,
8220DB001285,1285.0,Camden Street Lower,,53.3343784055881,-6.2651247542572,,,,
8220DB001286,1286.0,Harrington Street,,53.3324996494988,-6.26572653484079,,,,
8220DB001287,1287.0,Synge Street,,53.3324783725628,-6.2661177906657,,,,
8220DB001288,1288.0,Victoria Street,,53.3323227536326,-6.26963762234934,,,,
8220DB001289,1289.0,Longwood Avenue,,53.332129361318,-6.27303883277026,,,,
8220DB001290,1290.0,Clanbrassil Street Upper,,53.3307310456544,-6.27516731880573,,,,
8220DB001291,1291.0,Harold's Cross Road,,53.3284466111552,-6.2763104414061,,,,
8220DB001292,1292.0,Harold's Cross Park,,53.325634,-6.278124,,,,
8220DB001293,1293.0,Parkview Avenue,,53.3228603639121,-6.27910262973284,,,,
8220DB001294,1294.0,Lady of the Rosary,,53.3206000262741,-6.27880330627753,,,,
8220DB001295,1295.0,Kenilworth Park,,53.31791,-6.27951,,,,
8220DB001296,1296.0,Mount Tallant Avenue,,53.3155627461345,-6.28164762292477,,,,
8220DB001297,1297.0,Whitton Road,,53.3124096124176,-6.28238961414195,,,,
8220DB001298,1298.0,Terenure,,53.3107469924722,-6.28302665100768,,,,
8220DB001299,1299.0,Rathfarnham Road,,53.3083957027798,-6.28390135641413,,,,
8220DB001300,1300.0,Rathdown Park,,53.3061507463854,-6.28342117670723,,,,
8220DB001335,1335.0,War Memorial Hall,,53.3074174243547,-6.28400061997863,,,,
8220DB001336,1336.0,Terenure,,53.3089009059751,-6.28403115972446,,,,
8220DB001337,1337.0,Terenure Road North,,53.311179037374,-6.2830693410482,,,,
8220DB001338,1338.0,Whitton Road,,53.3124303862627,-6.28258388430717,,,,
8220DB001339,1339.0,Harold's Cross Road,,53.3150238623403,-6.28229964697715,,,,
8220DB001340,1340.0,Mount Tallant Avenue,,53.3164701422711,-6.28099578090548,,,,
8220DB001341,1341.0,Kenilworth Park,,53.3192275894617,-6.27899363575735,,,,
8220DB001342,1342.0,Lady of the Rosary,,53.32129,-6.27934,,,,
8220DB001343,1343.0,Harold's Cross Park,,53.3226672850414,-6.27942564411739,,,,
8220DB001344,1344.0,St Clare's Primary School,,53.327171,-6.277608,,,,
8220DB001345,1345.0,Le Vere Terrace,,53.3287960763033,-6.27623629638881,,,,
8220DB001347,1347.0,Clanbrassil Street Upper,,53.3311830098566,-6.27534427274469,,,,
8220DB001348,1348.0,Spencer Street South,,53.3322495353619,-6.27388983282421,,,,
8220DB001349,1349.0,Carlisle Street,,53.3323857279044,-6.27088132287856,,,,
8220DB001350,1350.0,Harrington Street,,53.3325610927811,-6.26748081181986,,,,
8220DB001352,1352.0,Camden Street Lower,,53.3344454316074,-6.26540733380828,,,,
8220DB001353,1353.0,Pleasants Street,,53.3360095336299,-6.26541893799966,,,,
8220DB001354,1354.0,Aungier Street,,53.3390480888871,-6.2660765148576,,,,
8220DB001355,1355.0,Whitefriars Street,,53.3400962425888,-6.26583875541446,,,,
8220DB001357,1357.0,Exchequer Street,,53.3425678944056,-6.26459703020816,,,,
8220DB001358,1358.0,Dame Street,,53.3443047133849,-6.26288938939082,,,,
8220DB001359,1359.0,College Green,,53.3443994063613,-6.26136859043366,,,,
8220DB001360,1360.0,Raymond Street,,53.3319833877849,-6.27661827752552,,,,
8220DB001362,1362.0,National Stadium,,53.3312039603907,-6.27990787352224,,,,
8220DB001363,1363.0,St Anne's Road South,,53.3318459312211,-6.28516726502174,,,,
8220DB001364,1364.0,Dolphin Avenue,,53.3323458739421,-6.28806012034706,,,,
8220DB001365,1365.0,Dolphins Barn Church,,53.3329015319242,-6.29045531304391,,,,
8220DB001366,1366.0,St Andrews Centre,,53.3351498676844,-6.29431459059538,,,,
8220DB001367,1367.0,Rialto Church,,53.3356852929568,-6.29656066348713,,,,
8220DB001369,1369.0,Mayfield Road,,53.3388672150254,-6.30224552041051,,,,
8220DB001370,1370.0,Hybreasal House,,53.3391885807998,-6.30525124556593,,,,
8220DB001371,1371.0,Suir Road,,53.338876,-6.307907,,,,
8220DB001372,1372.0,Goldenbridge Avenue,,53.3381036945483,-6.30987444642345,,,,
8220DB001373,1373.0,Stephen's Road,,53.337774759112,-6.31203486545017,,,,
8220DB001374,1374.0,Southern Cross Avenue,,53.3392177102595,-6.31301407116772,,,,
8220DB001375,1375.0,Bulfin Road,,53.3395561606215,-6.31215973185631,,,,
8220DB001376,1376.0,South Circular Road,,53.3395079105859,-6.30875267180088,,,,
8220DB001377,1377.0,South Circular Road,,53.3391633646051,-6.3047416552708,,,,
8220DB001378,1378.0,Mayfield Road,,53.338827874904,-6.30137608273126,,,,
8220DB001379,1379.0,Rialto Luas,,53.3373397013518,-6.2991226532094,,,,
8220DB001380,1380.0,Rialto Church,,53.3356410022626,-6.2959767991197,,,,
8220DB001381,1381.0,St Andrews Centre,,53.3351237466265,-6.29374502629881,,,,
8220DB001382,1382.0,Dolphins Barn Church,,53.3331731706702,-6.29059460205893,,,,
8220DB001383,1383.0,Dolphin Avenue,,53.3322710783542,-6.28660666292572,,,,
8220DB001384,1384.0,Dufferin Avenue,,53.3313561981831,-6.28236415375616,,,,
8220DB001385,1385.0,Griffith College,,53.3318004002729,-6.27826227183308,,,,
8220DB001386,1386.0,Clogher Road,,53.3295526186271,-6.28444849901104,,,,
8220DB001387,1387.0,Aughavanagh Road,,53.32804,-6.28673,,,,
8220DB001388,1388.0,Rutland Avenue,,53.32673,-6.29118,,,,
8220DB001389,1389.0,Pearse College,,53.325935942053,-6.29549287147597,,,,
8220DB001391,1391.0,Clonmacnoise Road,,53.3228221151074,-6.2983641234991,,,,
8220DB001392,1392.0,Bangor Circle,,53.3224910151669,-6.30161978617075,,,,
8220DB001394,1394.0,Ferns Road,,53.3237430594661,-6.29676623092555,,,,
8220DB001395,1395.0,Saint Bernadette's,,53.3247339571109,-6.29629140292411,,,,
8220DB001396,1396.0,Crumlin Pool,,53.32487,-6.31484,,,,
8220DB001397,1397.0,Kildare Road,,53.3250914014139,-6.31385670005284,,,,
8220DB001398,1398.0,Windmill Road,,53.3253013793644,-6.31027545066518,,,,
8220DB001399,1399.0,Monasterboice Road,,53.3251428005771,-6.30543270310374,,,,
8220DB001400,1400.0,Bangor Circle,,53.3236248160114,-6.29981835985768,,,,
8220DB001401,1401.0,Clogher Road,,53.3253968158929,-6.29865198476899,,,,
8220DB001402,1402.0,Pearse College,,53.325987931117,-6.29598621972538,,,,
8220DB001403,1403.0,Rutland Avenue,,53.3271540648862,-6.28954413336686,,,,
8220DB001404,1404.0,Aughavanagh Road,,53.3282005181173,-6.28667972051609,,,,
8220DB001405,1405.0,Parnell Road,,53.3298216746236,-6.28440767368218,,,,
8220DB001406,1406.0,Dolphin's Barn,,53.3331529314518,-6.29169152684098,,,,
8220DB001407,1407.0,Crumlin Road,,53.33153850277,-6.29444367690884,,,,
8220DB001409,1409.0,Loreto College,,53.3303667447648,-6.29735815557588,,,,
8220DB001410,1410.0,Keeper Road,,53.3314169223623,-6.29977873066414,,,,
8220DB001411,1411.0,Brickfield Drive,,53.3320510264254,-6.30328200417234,,,,
8220DB001412,1412.0,Slievenamon Road,,53.3326816543057,-6.30591464267836,,,,
8220DB001413,1413.0,Brickfields Park,,53.3334413912374,-6.30878249418882,,,,
8220DB001414,1414.0,Benbulbin Road,,53.3333476064724,-6.31231480140328,,,,
8220DB001415,1415.0,Sperrin Road,,53.3324432485375,-6.31637452092601,,,,
8220DB001417,1417.0,Lady Of Mercy School,,53.3310322127926,-6.31956811898517,,,,
8220DB001418,1418.0,Cooley Road,,53.3300297592351,-6.32306077006057,,,,
8220DB001419,1419.0,Brandon Road,,53.3277177272247,-6.3229112430655,,,,
8220DB001421,1421.0,Crumlin Hospital,,53.3249507659531,-6.3204526633011,,,,
8220DB001423,1423.0,Crumlin Hospital,,53.3249994890334,-6.31944492192627,,,,
8220DB001424,1424.0,Crumlin Hospital,,53.3256625125853,-6.31674662153124,,,,
8220DB001425,1425.0,Cooley Road,,53.3270131719758,-6.31819475352095,,,,
8220DB001426,1426.0,Curlew Road,,53.3292748788446,-6.32242977116861,,,,
8220DB001427,1427.0,Mourne Road,,53.3302711584121,-6.32233061937906,,,,
8220DB001428,1428.0,Lady of Mercy School,,53.3313588786113,-6.31914988401267,,,,
8220DB001429,1429.0,Sperrin Road,,53.3325932071671,-6.31617341926304,,,,
8220DB001430,1430.0,Belbulbin Road,,53.3335737954735,-6.31114968646878,,,,
8220DB001432,1432.0,Brickfields Park,,53.3334987403056,-6.30838982573818,,,,
8220DB001433,1433.0,Slievenamon Road,,53.3325721531997,-6.30579886199235,,,,
8220DB001434,1434.0,Keeper Road,,53.3319924475904,-6.30232337915273,,,,
8220DB001435,1435.0,Keeper Road,,53.3313880462685,-6.29901413246615,,,,
8220DB001436,1436.0,Herberton Road,,53.3308849576931,-6.29651171993405,,,,
8220DB001438,1438.0,St Thomas Road,,53.3363829768538,-6.27941413618385,,,,
8220DB001439,1439.0,Rutledge Terrace,,53.33406,-6.28265,,,,
8220DB001440,1440.0,Donore Avenue,,53.3319900593805,-6.28331465216846,,,,
8220DB001441,1441.0,Bangor Road,,53.3248749009902,-6.30302633322185,,,,
8220DB001442,1442.0,Clonard Road,,53.32513,-6.30711,,,,
8220DB001443,1443.0,Civic Offices,,53.3451293906923,-6.26953955862608,,,,
8220DB001444,1444.0,Merchant's Quay,,53.345076,-6.274513,,,,
8220DB001445,1445.0,Usher's Quay,,53.34592,-6.279466,,,,
8220DB001447,1447.0,Victoria Quay,,53.346503,-6.285585,,,,
8220DB001449,1449.0,Phoenix Park Gate,,53.3481528299949,-6.2978960946772,,,,
8220DB001450,1450.0,Conyngham Road,,53.3481554042344,-6.30186141311768,,,,
8220DB001451,1451.0,Bridgewater House,,53.3482782789353,-6.30544644496588,,,,
8220DB001452,1452.0,Islandbridge,,53.3454209055007,-6.30803799944734,,,,
8220DB001453,1453.0,Galtymore Road,,53.3345361691504,-6.30675710143038,,,,
8220DB001454,1454.0,Suir Road Luas,,53.337765,-6.30753,,,,
8220DB001455,1455.0,Slievenamon Road,,53.3353851151101,-6.30577746031336,,,,
8220DB001456,1456.0,Good Counsel GAA,,53.334873309138,-6.30898110692312,,,,
8220DB001457,1457.0,Benbulbin Road,,53.3353026586989,-6.31264303832718,,,,
8220DB001458,1458.0,Davitt House,,53.3347706199223,-6.31697357484942,,,,
8220DB001459,1459.0,Drimnagh CU,,53.3340633154256,-6.31971923722773,,,,
8220DB001460,1460.0,Carrow Road,,53.3323561008246,-6.32103258420222,,,,
8220DB001462,1462.0,Galtymore Park,,53.3304629315882,-6.32382451982613,,,,
8220DB001463,1463.0,Galtymore Road,,53.3306239948586,-6.32377316172963,,,,
8220DB001464,1464.0,Davitt House,,53.3348988015381,-6.31650303670368,,,,
8220DB001465,1465.0,Good Counsel GAA,,53.3347967644626,-6.30865378723676,,,,
8220DB001466,1466.0,Galtymore Drive,,53.3345289258282,-6.30624685358976,,,,
8220DB001467,1467.0,Slievenamon Road,,53.3356573760233,-6.30596187788384,,,,
8220DB001468,1468.0,Suir Road Luas,,53.33755,-6.307569,,,,
8220DB001469,1469.0,Benbulbin Road,,53.3352591593202,-6.31338053815391,,,,
8220DB001471,1471.0,Islandbridge,,53.3455323201996,-6.3082889204929,,,,
8220DB001472,1472.0,Conyngham Road,,53.3484294679782,-6.30596616966113,,,,
8220DB001473,1473.0,Phoenix Park Gate,,53.3483059784729,-6.29855089897715,,,,
8220DB001474,1474.0,Parkgate Street,,53.3479479159584,-6.29236170464093,,,,
8220DB001476,1476.0,Sarsfield Quay,,53.3470736855762,-6.28467627539548,,,,
8220DB001478,1478.0,Four Courts,,53.345608,-6.272809,,,,
8220DB001479,1479.0,Ormond Quay,,53.34599,-6.26906,,,,
8220DB001480,1480.0,Ormond Quay Upper,,53.3457659646525,-6.27067029772414,,,,
8220DB001481,1481.0,Melrose Avenue,,53.3650538686119,-6.23989609720882,,,,
8220DB001482,1482.0,Marino Institute,,53.371664,-6.236528,,,,
8220DB001484,1484.0,Philipsburgh Avenue,,53.3636977091079,-6.2399670293288,,,,
8220DB001485,1485.0,Philipsburgh Avenue,,53.3640458176991,-6.23980241692247,,,,
8220DB001486,1486.0,Morrogh Terrace,,53.3709747783034,-6.23852480902206,,,,
8220DB001487,1487.0,Marino Institute,,53.3718192548925,-6.23667144996373,,,,
8220DB001488,1488.0,Turlogh Parade,,53.3710888554238,-6.23468777023624,,,,
8220DB001489,1489.0,Marino Church,,53.3701586652324,-6.23196100760236,,,,
8220DB001490,1490.0,Árd Scoil Rís,,53.36887682169,-6.22855766174829,,,,
8220DB001491,1491.0,Griffith Avenue,,53.3684677618855,-6.22764290979838,,,,
8220DB001492,1492.0,Marino Church,,53.3702573904197,-6.23255805716234,,,,
8220DB001493,1493.0,Turlogh Parade,,53.3712134044588,-6.23520862720418,,,,
8220DB001494,1494.0,Croydon Park,,53.3706730149261,-6.23574194163253,,,,
8220DB001495,1495.0,Croydon Park Avenue,,53.3687559405685,-6.23556569739488,,,,
8220DB001496,1496.0,Marino Green,,53.3671481166124,-6.23381383826092,,,,
8220DB001499,1499.0,Brian Road,,53.3657794887071,-6.23729658684485,,,,
8220DB001500,1500.0,Connolly,,53.350969,-6.250134,,,,
8220DB001502,1502.0,Tara Street Station,,53.3474210687958,-6.25409592678011,,,,
8220DB001505,1505.0,Parnell Street,,53.3540289631818,-6.2578969848714,,,,
8220DB001506,1506.0,Finglas Road,,53.3667778214166,-6.27237390919528,,,,
8220DB001507,1507.0,St Vincent's School,,53.368390520312,-6.27450269164138,,,,
8220DB001508,1508.0,Glasnevin Cemetery,,53.3699109022633,-6.2783335511568,,,,
8220DB001509,1509.0,Slaney Road,,53.3729258340421,-6.28422366048831,,,,
8220DB001510,1510.0,Ballyboggan Road,,53.3769069295213,-6.28731023718711,,,,
8220DB001511,1511.0,Tolka Vale,,53.3782345231781,-6.28775298457067,,,,
8220DB001512,1512.0,Prospect Hill,,53.3821743223388,-6.29172883549396,,,,
8220DB001513,1513.0,Saint Martin's,,53.386767433941,-6.29677680332904,,,,
8220DB001514,1514.0,Drogheda Mall,,53.3894651562214,-6.30002191446058,,,,
8220DB001515,1515.0,Marino Park,,53.3661143161413,-6.23319541821689,,,,
8220DB001518,1518.0,Kildonan Road,,53.3906003885098,-6.31161412406028,,,,
8220DB001519,1519.0,Kildonan Park,,53.39244486956,-6.31175161798526,,,,
8220DB001520,1520.0,Barry Road,,53.3939201989249,-6.31184358657785,,,,
8220DB001521,1521.0,Plunkett Green,,53.3972212992971,-6.31075049408942,,,,
8220DB001523,1523.0,Plunkett Avenue,,53.3978788506134,-6.30958155709762,,,,
8220DB001524,1524.0,Barry Road,,53.3955562648928,-6.31059088714389,,,,
8220DB001525,1525.0,Casement Drive,,53.3940692958004,-6.31158206161738,,,,
8220DB001526,1526.0,Kildonan Park,,53.3923069370311,-6.31153153662508,,,,
8220DB001528,1528.0,St David's Terrace,,53.3561954281552,-6.29400002572951,,,,
8220DB001529,1529.0,Finglas Village,,53.3884588269272,-6.29815260689777,,,,
8220DB001530,1530.0,Finglas Road,,53.3869194998643,-6.29672562964293,,,,
8220DB001531,1531.0,Clearwater SC,,53.3837436640274,-6.29336474093086,,,,
8220DB001532,1532.0,Prospect Hill,,53.381744117229,-6.29055850090005,,,,
8220DB001533,1533.0,Tolka Vale,,53.378967884758,-6.2874980880021,,,,
8220DB001534,1534.0,Ballyboggan Road,,53.375332839158,-6.28597560287496,,,,
8220DB001535,1535.0,The Willows,,53.3723059581374,-6.28236994393799,,,,
8220DB001536,1536.0,Glasnevin Cemetery,,53.3695033971686,-6.27687723281359,,,,
8220DB001537,1537.0,St Vincent's School,,53.3680662049778,-6.273208398937,,,,
8220DB001538,1538.0,Clearwater SC,,53.3844741413118,-6.29479375491463,,,,
8220DB001539,1539.0,Glasanaon Road,,53.3831357990658,-6.27919801572373,,,,
8220DB001540,1540.0,Johnstown Park,,53.3843403099774,-6.28420062884396,,,,
8220DB001547,1547.0,McKee Avenue Estate,,53.3952411658158,-6.30168636640583,,,,
8220DB001548,1548.0,McKee Avenue North,,53.3961101450105,-6.30274949327834,,,,
8220DB001549,1549.0,Plunkett Road,,53.3974326561122,-6.30663678307137,,,,
8220DB001558,1558.0,McKelvey Avenue,,53.3998175109931,-6.30305309451757,,,,
8220DB001559,1559.0,Plunkett Road,,53.3973411212961,-6.30652011500249,,,,
8220DB001560,1560.0,St Margaret's Road,,53.397007542354,-6.30454838145878,,,,
8220DB001566,1566.0,Johnstown Park,,53.3844074206077,-6.28386719661231,,,,
8220DB001567,1567.0,Griffith Drive,,53.3840139569876,-6.28026002177018,,,,
8220DB001573,1573.0,Wellmount Drive,,53.3840241647317,-6.31246066242432,,,,
8220DB001574,1574.0,Cardiffsbridge SC,,53.3855939979914,-6.31287964710487,,,,
8220DB001575,1575.0,Coláiste Íde,,53.3870661425713,-6.31274625802596,,,,
8220DB001576,1576.0,Cappagh Road,,53.3893174054908,-6.31304812471741,,,,
8220DB001577,1577.0,Abbottstown Road,,53.3898858080548,-6.31574701686645,,,,
8220DB001578,1578.0,Ratoath Drive,,53.3903851294541,-6.31801267740452,,,,
8220DB001579,1579.0,Heathfield Avenue,,53.3947,-6.32605,,,,
8220DB001582,1582.0,Heathfield Avenue,,53.39519,-6.32737,,,,
8220DB001584,1584.0,Abbottstown Road,,53.3898854600296,-6.31508548205008,,,,
8220DB001585,1585.0,Cardiffsbridge Road,,53.3887680197446,-6.31233314490446,,,,
8220DB001586,1586.0,Coláiste Íde,,53.3865250406196,-6.31261731806413,,,,
8220DB001587,1587.0,Wellmount Drive,,53.383466430314,-6.3117912065007,,,,
8220DB001591,1591.0,Wellmount Road,,53.3871387918528,-6.29949821324412,,,,
8220DB001592,1592.0,Tolka Valley Road,,53.379720918945,-6.28924160522583,,,,
8220DB001593,1593.0,Tolka Valley Park,,53.3789147733946,-6.29445974940212,,,,
8220DB001594,1594.0,St Helena's Road,,53.3807131944304,-6.29766484522038,,,,
8220DB001596,1596.0,St Malachy's NS,,53.3830410953015,-6.30081905725314,,,,
8220DB001597,1597.0,Valeview Gardens,,53.3804552155941,-6.30923466596562,,,,
8220DB001598,1598.0,Valeview Drive,,53.3802421780299,-6.3056204400567,,,,
8220DB001599,1599.0,Cardiffsbridge Road,,53.3808997507106,-6.31079541615784,,,,
8220DB001600,1600.0,Deanstown Avenue,,53.3835970178865,-6.3127631835118,,,,
8220DB001601,1601.0,Deanstown Drive,,53.383894313473,-6.31472076129326,,,,
8220DB001602,1602.0,Patrician College,,53.384418003166,-6.3187139572728,,,,
8220DB001603,1603.0,Ratoath Road,,53.3835188568842,-6.31868925643626,,,,
8220DB001604,1604.0,Rathvilly Road,,53.3837454770658,-6.31627504223633,,,,
8220DB001605,1605.0,Albert College Park,,53.388252972158,-6.2607995902938,,,,
8220DB001606,1606.0,St Helena's Road,,53.380370683576,-6.30644208983686,,,,
8220DB001607,1607.0,Dunsink Drive,,53.3821613835434,-6.30342464753537,,,,
8220DB001608,1608.0,St Malachy's NS,,53.3830498568531,-6.29954091872958,,,,
8220DB001609,1609.0,Cloonlara,,53.3803842380755,-6.29728713957775,,,,
8220DB001610,1610.0,Tolka Valley Park,,53.3788077072716,-6.2964030706551,,,,
8220DB001614,1614.0,Church Street Upper,,53.3512573878221,-6.27375276357381,,,,
8220DB001615,1615.0,Church Street,,53.3478271653616,-6.27459733233133,,,,
8220DB001616,1616.0,St Michan's Church,,53.347285072294,-6.27502477300754,,,,
8220DB001617,1617.0,Capuchin Church,,53.349331207955,-6.27480696433912,,,,
8220DB001618,1618.0,Church Street Upper,,53.3508870581217,-6.2742484187074,,,,
8220DB001619,1619.0,Constitution Hill,,53.3529126950418,-6.27323519870162,,,,
8220DB001620,1620.0,Whitehall Church,,53.3832628572882,-6.24410591269662,,,,
8220DB001641,1641.0,Ellenfield Park,,53.3865272844342,-6.2423929664579,,,,
8220DB001642,1642.0,Whitehall Church,,53.3839478893434,-6.2436267222871,,,,
8220DB001643,1643.0,St Aidan's School,,53.3848022173745,-6.25100309535719,,,,
8220DB001644,1644.0,DCU Collins Avenue,,53.3868700413836,-6.25657120617442,,,,
8220DB001646,1646.0,DCU Collins Avenue,,53.3871546494696,-6.25698053714182,,,,
8220DB001647,1647.0,Blackhall Place,,53.34835,-6.28218,,,,
8220DB001648,1648.0,Stoneybatter,,53.3510913675303,-6.28280248510502,,,,
8220DB001649,1649.0,Manor Street,,53.35256,-6.28428,,,,
8220DB001650,1650.0,Castle Avenue,,53.3611743870623,-6.20931427534311,,,,
8220DB001651,1651.0,Vernon Avenue,,53.3679404066283,-6.19485933423548,,,,
8220DB001652,1652.0,Clontarf Castle,,53.3633555860125,-6.20612742264058,,,,
8220DB001654,1654.0,St David's Terrace,,53.35611,-6.29427,,,,
8220DB001655,1655.0,Blackhorse Avenue,,53.356732171847,-6.29696827411514,,,,
8220DB001656,1656.0,McKee Park,,53.3573,-6.29883,,,,
8220DB001657,1657.0,Dunard Walk,,53.3583921080637,-6.303076999237,,,,
8220DB001658,1658.0,Skreen Road,,53.3619888217441,-6.30951518790603,,,,
8220DB001659,1659.0,Croaghpatrick Road,,53.3632599650494,-6.30471669903602,,,,
8220DB001660,1660.0,Cabra Garda Station,,53.3651865517873,-6.30937355306517,,,,
8220DB001661,1661.0,Our Lady's Church,,53.3664436172408,-6.31309553779386,,,,
8220DB001662,1662.0,Baggot Road,,53.367603,-6.317543,,,,
8220DB001664,1664.0,Ashtown Grove,,53.3694085180285,-6.32385863047439,,,,
8220DB001665,1665.0,Kempton,,53.3706578377534,-6.32770193003479,,,,
8220DB001666,1666.0,Ashtown Roundabout,,53.3715971506478,-6.33059573112208,,,,
8220DB001667,1667.0,Castleknock Road,,53.3708697670474,-6.33450151947603,,,,
8220DB001668,1668.0,Old Race Course,,53.3708427403677,-6.34030355015358,,,,
8220DB001694,1694.0,Old Race Course,,53.3710173888657,-6.33993607589947,,,,
8220DB001695,1695.0,Ashtown Gate,,53.3710101423756,-6.33425558646775,,,,
8220DB001696,1696.0,Ashtown Roundabout,,53.3715415173175,-6.32983144331411,,,,
8220DB001697,1697.0,Kempton,,53.3708011457454,-6.32766625894216,,,,
8220DB001698,1698.0,Ashtown Grove,,53.3695772972019,-6.32371675132509,,,,
8220DB001699,1699.0,Baggot Road,,53.3687436056718,-6.32131499536448,,,,
8220DB001700,1700.0,Baggot Road,,53.3677088280568,-6.31740348546715,,,,
8220DB001701,1701.0,Our Lady's Church,,53.3665672561416,-6.31294038272441,,,,
8220DB001702,1702.0,Navan Road Church,,53.3656108301726,-6.31013813858873,,,,
8220DB001703,1703.0,Cabra Garda Station,,53.3647353990213,-6.30734783376241,,,,
8220DB001704,1704.0,Skreen Road,,53.36303,-6.30521,,,,
8220DB001705,1705.0,Ardpatrick Road,,53.3621807471602,-6.3084708336941,,,,
8220DB001706,1706.0,Blackhorse Avenue,,53.3600698255996,-6.30729237527244,,,,
8220DB001707,1707.0,Dunard Walk,,53.3584282663489,-6.30245957267131,,,,
8220DB001708,1708.0,Mc Kee Park,,53.35735,-6.29863,,,,
8220DB001709,1709.0,Glenbeigh Avenue,,53.3568682016769,-6.29705299143726,,,,
8220DB001710,1710.0,Aughrim Street,,53.3555699040255,-6.29174149147947,,,,
8220DB001711,1711.0,Holy Family Church,,53.3545779754891,-6.28963290156871,,,,
8220DB001712,1712.0,Aughrim Court,,53.3533339170032,-6.28624259176384,,,,
8220DB001713,1713.0,Manor Street,,53.351907820017,-6.28332547345323,,,,
8220DB001714,1714.0,Stoneybatter,,53.3506378069371,-6.28188938800201,,,,
8220DB001715,1715.0,Blackhall Place,,53.3477,-6.28212,,,,
8220DB001724,1724.0,Clontarf Road,,53.3657153153763,-6.17444158948899,,,,
8220DB001725,1725.0,Doyle's Lane,,53.3637602626912,-6.17707965691366,,,,
8220DB001726,1726.0,Dollymount Park,,53.3622913896674,-6.17918587611664,,,,
8220DB001727,1727.0,Bull Island,,53.3604468636635,-6.18318608956813,,,,
8220DB001728,1728.0,Wooden Bridge,,53.3596562743545,-6.18616459625132,,,,
8220DB001729,1729.0,Clontarf Bus Garage,,53.358496905837,-6.19031550974053,,,,
8220DB001730,1730.0,Vernon Court,,53.3582310907412,-6.19412792894392,,,,
8220DB001731,1731.0,John the Baptist Church,,53.3590767534187,-6.19655620427267,,,,
8220DB001732,1732.0,Oultan Road,,53.3600629107601,-6.20234423812554,,,,
8220DB001733,1733.0,Clontarf Baths,,53.3602126155145,-6.20631955975878,,,,
8220DB001734,1734.0,Castle Avenue,,53.3603909611114,-6.2110149084861,,,,
8220DB001735,1735.0,The Stiles Road,,53.3611433270906,-6.21443920712788,,,,
8220DB001736,1736.0,St Lawrence Road,,53.3621421815528,-6.21692174662785,,,,
8220DB001737,1737.0,Alfie Byrne Road,,53.3628580243648,-6.21971672090975,,,,
8220DB001738,1738.0,Clontarf Road Pitches,,53.3634508756356,-6.22391433414591,,,,
8220DB001740,1740.0,Clontarf Road,,53.364032,-6.226107,,,,
8220DB001741,1741.0,Alfie Byrne Road,,53.3631169030858,-6.22080282346914,,,,
8220DB001742,1742.0,St Lawrence Road,,53.3621257933153,-6.21642658486162,,,,
8220DB001743,1743.0,The Court,,53.3611356864305,-6.21392866651198,,,,
8220DB001744,1744.0,Scoil Uí Chonaill,,53.3603486398948,-6.20879297700679,,,,
8220DB001745,1745.0,Clontarf Baths,,53.3603470796607,-6.20569788496817,,,,
8220DB001746,1746.0,Oultan Road,,53.3602565190474,-6.20266663792762,,,,
8220DB001747,1747.0,John the Baptist Church,,53.3593509922733,-6.19686014145276,,,,
8220DB001748,1748.0,Fortview Avenue,,53.3582570201128,-6.19346576182192,,,,
8220DB001749,1749.0,Clontarf Bus Garage,,53.3585903733484,-6.1905519401528,,,,
8220DB001750,1750.0,St Anne's Park,,53.3688677027256,-6.17780832862968,,,,
8220DB001751,1751.0,Wooden Bridge,,53.3598698762799,-6.18543432703186,,,,
8220DB001752,1752.0,Bull Island,,53.3611275917067,-6.18184991858566,,,,
8220DB001753,1753.0,Dollymount Park,,53.3627239628467,-6.17867157318113,,,,
8220DB001754,1754.0,Doyle's Lane,,53.3641156564687,-6.1768090335747,,,,
8220DB001755,1755.0,Seapark,,53.366429976972,-6.18712407524492,,,,
8220DB001756,1756.0,Dollymount Avenue,,53.3672099080423,-6.18285319862788,,,,
8220DB001757,1757.0,Park Lawn,,53.3686296418871,-6.18223672762261,,,,
8220DB001758,1758.0,Mount Prospect Avenue,,53.3681296759012,-6.17539029232827,,,,
8220DB001759,1759.0,The Oaks,,53.3660002227298,-6.17426410843031,,,,
8220DB001760,1760.0,Seapark Road,,53.3659722446511,-6.18775962192309,,,,
8220DB001761,1761.0,Seafield Road Junc,,53.3638373979427,-6.18804557985468,,,,
8220DB001762,1762.0,Seafield Road,,53.3637511873678,-6.19124983539217,,,,
8220DB001763,1763.0,Vernon Avenue,,53.3644067789412,-6.19536937525239,,,,
8220DB001764,1764.0,Blackheath Park,,53.3658929687427,-6.19557704044883,,,,
8220DB001765,1765.0,Blackheath Grove,,53.3665514240798,-6.20228141366141,,,,
8220DB001766,1766.0,Seafield Road West,,53.3651160524238,-6.20485131647104,,,,
8220DB001767,1767.0,Clontarf Castle,,53.3638273181033,-6.20522105323392,,,,
8220DB001769,1769.0,Park Lawn,,53.3688857835692,-6.18194028646478,,,,
8220DB001770,1770.0,Dollymount Avenue,,53.367083468779,-6.18281349818964,,,,
8220DB001771,1771.0,St Gabriel's Road,,53.3660419203317,-6.18524714015886,,,,
8220DB001772,1772.0,Clontarf Cemetery,,53.3650107475138,-6.20502103771963,,,,
8220DB001773,1773.0,Blackheath Park,,53.3668109134426,-6.20339753583734,,,,
8220DB001774,1774.0,Blackheath Avenue,,53.3661362371214,-6.19740006471563,,,,
8220DB001775,1775.0,Vernon Avenue,,53.3644399833339,-6.19518765370067,,,,
8220DB001776,1776.0,Seafield Road,,53.3638160053874,-6.19196835160384,,,,
8220DB001777,1777.0,Seafield Avenue,,53.366339,-6.190699,,,,
8220DB001778,1778.0,Mount Prospect Avenue,,53.3666136880703,-6.18915998517225,,,,
8220DB001782,1782.0,Brookwood Grove,,53.3823894993402,-6.19817165074133,,,,
8220DB001783,1783.0,McAuley Road,,53.3838032158922,-6.19596218165506,,,,
8220DB001784,1784.0,Gorsefield Court,,53.384620981283,-6.19298101335646,,,,
8220DB001785,1785.0,McAuley Park,,53.3825960633072,-6.19162361492977,,,,
8220DB001786,1786.0,McAuley Park,,53.3819941363959,-6.19223540172876,,,,
8220DB001788,1788.0,Millbrook Road,,53.391614051062,-6.17880643395275,,,,
8220DB001789,1789.0,Clonrosse Drive,,53.3942624574249,-6.1786031191802,,,,
8220DB001791,1791.0,O'Tooles GAA,,53.3965874453453,-6.18194749011522,,,,
8220DB001792,1792.0,Millbrook Road,,53.3935247615054,-6.17855943972057,,,,
8220DB001793,1793.0,Milbrook Grove,,53.3916843046715,-6.17869818119338,,,,
8220DB001794,1794.0,Thornhill Lane,,53.3694410695083,-6.17945199515198,,,,
8220DB001795,1795.0,Rosecourt,,53.3615033956228,-6.29686814224356,,,,
8220DB001796,1796.0,McAuley Park,,53.38178934558,-6.19117676197823,,,,
8220DB001797,1797.0,McAuley Drive,,53.3831278453854,-6.19172134030205,,,,
8220DB001798,1798.0,McAuley Road,,53.3843839100381,-6.19453950864013,,,,
8220DB001799,1799.0,Mask Crescent,,53.3830586828355,-6.19665511759705,,,,
8220DB001800,1800.0,Lady of Mercy Church,,53.3823067907417,-6.19924247171126,,,,
8220DB001801,1801.0,Brookwood Avenue,,53.3823969984385,-6.20224522816108,,,,
8220DB001802,1802.0,Cabra Road,,53.36142,-6.29461,,,,
8220DB001803,1803.0,Cabra Road,,53.36151,-6.29394,,,,
8220DB001804,1804.0,Rosecourt,,53.36163,-6.29735,,,,
8220DB001805,1805.0,Dunard,,53.361162703908,-6.29755786085374,,,,
8220DB001806,1806.0,Navan Road,,53.3629069059087,-6.30264214209815,,,,
8220DB001807,1807.0,Phoenix Park Avenue,,53.3744144643082,-6.33926288340455,,,,
8220DB001847,1847.0,Old Racecourse,,53.3729020091384,-6.33392626097368,,,,
8220DB001905,1905.0,Skreen Road,,53.3633175461639,-6.30307659409082,,,,
8220DB001906,1906.0,Old Cabra Road,,53.3612007620203,-6.29707553938411,,,,
8220DB001907,1907.0,Glenbeigh Road,,53.3599049453531,-6.29382178508836,,,,
8220DB001908,1908.0,Cabra Drive,,53.3586907975484,-6.29125607276843,,,,
8220DB001909,1909.0,Prussia Street,,53.356960263151,-6.28841072316956,,,,
8220DB001911,1911.0,Prussia Street,,53.356538,-6.2883,,,,
8220DB001913,1913.0,Cabra Drive,,53.358806332072,-6.29179232473619,,,,
8220DB001914,1914.0,Glenbeigh Road,,53.3602157626894,-6.29481602746614,,,,
8220DB001934,1934.0,Dame Street,,53.3441183606943,-6.26552532473919,,,,
8220DB001935,1935.0,Lord Edward Street,,53.3439343462159,-6.26832635157408,,,,
8220DB001937,1937.0,High Street,,53.3430874992184,-6.27315167433484,,,,
8220DB001938,1938.0,Thomas Street,,53.3429778949688,-6.27676060847678,,,,
8220DB001939,1939.0,Bridgefoot Street,,53.3429982683414,-6.2806646665428,,,,
8220DB001940,1940.0,James Street,,53.3435386006474,-6.28573434793232,,,,
8220DB001941,1941.0,Steeven's Lane,,53.3433454019831,-6.28918142026463,,,,
8220DB001942,1942.0,St James Hospital,,53.34215,-6.29468,,,,
8220DB001943,1943.0,Mount Brown,,53.3413732636991,-6.29834636571316,,,,
8220DB001944,1944.0,Old Kilmainham,,53.3406753265043,-6.3036154053404,,,,
8220DB001945,1945.0,Inchicore Library,,53.3405547841693,-6.30968740041896,,,,
8220DB001946,1946.0,Richmond Park,,53.3401188049318,-6.3163574768868,,,,
8220DB001947,1947.0,Camac Close,,53.3398178565031,-6.31796119520697,,,,
8220DB001948,1948.0,Tyrconnell Road,,53.3386619960474,-6.32204630155487,,,,
8220DB001949,1949.0,Tyrconnell Park,,53.3376414795987,-6.32361808034677,,,,
8220DB001950,1950.0,Oblates Church,,53.3360210442473,-6.32599413397448,,,,
8220DB001951,1951.0,Blackhorse Luas,,53.3331348380325,-6.32912521917047,,,,
8220DB001952,1952.0,Lansdowne Valley,,53.3317095154419,-6.33003676787117,,,,
8220DB001953,1953.0,Bluebell Luas,,53.3299944994922,-6.33208562071694,,,,
8220DB001954,1954.0,Muirfield Drive,,53.3287741741427,-6.33480565905476,,,,
8220DB001955,1955.0,Carriglea Industrial Estate,,53.327945707171,-6.3379156633768,,,,
8220DB001956,1956.0,Kylemore Luas,,53.3263654179245,-6.34384709401736,,,,
8220DB001981,1981.0,Kylemore Luas,,53.3264867532132,-6.34481822747156,,,,
8220DB001982,1982.0,Kylemore Road Junc,,53.3272299503081,-6.34202704890607,,,,
8220DB001984,1984.0,Bluebell Luas,,53.3294445318954,-6.33389372947138,,,,
8220DB001985,1985.0,Blackhorse Luas,,53.3329236566366,-6.32944879131458,,,,
8220DB001986,1986.0,Tyrconnell Road,,53.3353553796487,-6.32723649887249,,,,
8220DB001987,1987.0,Oblates Church,,53.3362899055526,-6.32593855473876,,,,
8220DB001988,1988.0,Hampton Court,,53.3382603815004,-6.32288800493359,,,,
8220DB001989,1989.0,Emmet Road,,53.3397064788455,-6.31898677046978,,,,
8220DB001990,1990.0,Myra Cottages,,53.340472781795,-6.31469157313953,,,,
8220DB001992,1992.0,Inchicore Library,,53.3406544981518,-6.30911277701976,,,,
8220DB001993,1993.0,Old Kilmainham,,53.3408,-6.30466,,,,
8220DB001994,1994.0,Mount Brown,,53.3414239628449,-6.29938060050009,,,,
8220DB001995,1995.0,Basin Street Lower,,53.3426751859667,-6.29321822745695,,,,
8220DB001996,1996.0,James Street,,53.3435600718342,-6.28848195376402,,,,
8220DB001997,1997.0,Thomas Street,,53.34364,-6.28542,,,,
8220DB001998,1998.0,Bridgefoot Street,,53.3431396148983,-6.28049377213711,,,,
8220DB001999,1999.0,Francis Street Junction,,53.3431192358309,-6.27658970136464,,,,
8220DB002001,2001.0,High Street,,53.3433104732309,-6.27365330535553,,,,
8220DB002002,2002.0,Lord Edward Street,,53.3437708065865,-6.2694443900314,,,,
8220DB002003,2003.0,Exchange Street Upper,,53.3440412686003,-6.2682619415957,,,,
8220DB002085,2085.0,RTE,,53.3151737463869,-6.22018615619695,,,,
8220DB002086,2086.0,Nutley Avenue,,53.3181567845485,-6.21470338209092,,,,
8220DB002087,2087.0,Ailesbury Road,,53.3206094716409,-6.212829685015,,,,
8220DB002088,2088.0,St Vincent's Hospital,,53.3172966893469,-6.21609017469623,,,,
8220DB002089,2089.0,RTE,,53.315301993767,-6.21974555361791,,,,
8220DB002094,2094.0,Coombe Hospital,,53.3347519664049,-6.28975063819717,,,,
8220DB002095,2095.0,Crumlin SC,,53.3290374667767,-6.3024707515015,,,,
8220DB002096,2096.0,Guinness RFC,,53.3280835904812,-6.30681749101654,,,,
8220DB002097,2097.0,Iveagh Gardens,,53.3274327540337,-6.30972580638998,,,,
8220DB002099,2099.0,Drimnagh Road,,53.3255615813916,-6.3166004693825,,,,
8220DB002101,2101.0,Crumlin Hospital,,53.3249545652162,-6.31817063885906,,,,
8220DB002102,2102.0,Balfe Road,,53.324194846075,-6.32614190218012,,,,
8220DB002103,2103.0,Walkinstown Road,,53.32208269548,-6.32999241707338,,,,
8220DB002105,2105.0,Walkinstown Parade,,53.3236525793889,-6.33749707765403,,,,
8220DB002181,2181.0,Long Mile Road,,53.3238376853462,-6.33917121398624,,,,
8220DB002182,2182.0,Walkinstown Parade,,53.3239619234578,-6.33518822198748,,,,
8220DB002183,2183.0,Walkinstown Shopping Centre,,53.321703980838,-6.33054760884826,,,,
8220DB002184,2184.0,Drimnagh Road Junc,,53.3229966132175,-6.32914609742308,,,,
8220DB002185,2185.0,Slievebloom Road,,53.3242587027673,-6.32749048930553,,,,
8220DB002186,2186.0,Crumlin Road,,53.3269332843419,-6.31253797965372,,,,
8220DB002187,2187.0,Iveagh Grounds,,53.3280452768584,-6.30728442530442,,,,
8220DB002188,2188.0,Crumlin College,,53.3290169228299,-6.30292198124809,,,,
8220DB002189,2189.0,Crumlin SC,,53.329695395882,-6.30007240820087,,,,
8220DB002190,2190.0,Dolphin's Barn,,53.3327705719691,-6.29260771619783,,,,
8220DB002191,2191.0,Islandbridge Gate,,53.3480255718777,-6.31044326467114,,,,
8220DB002192,2192.0,UCD Boat Club,,53.347245622936,-6.31567109288468,,,,
8220DB002193,2193.0,Garda Rowing Club,,53.3463845503877,-6.32345529052176,,,,
8220DB002194,2194.0,Military Road,,53.3461933372464,-6.32840430346692,,,,
8220DB002195,2195.0,St Mary's Hospital,,53.3467441138053,-6.33758999273197,,,,
8220DB002196,2196.0,Chapelizod,,53.347834625121,-6.34167815146673,,,,
8220DB002197,2197.0,Lucan Road,,53.34816555341,-6.34674221487069,,,,
8220DB002198,2198.0,Belgrove Park,,53.3506251417953,-6.35106328860524,,,,
8220DB002199,2199.0,Glenaulin,,53.3519682958547,-6.35590853399226,,,,
8220DB002200,2200.0,Kylemore Road,,53.3502827503671,-6.35295415067497,,,,
8220DB002243,2243.0,Glenaulin,,53.3519743826815,-6.35569799515708,,,,
8220DB002244,2244.0,Belgrove Park,,53.3508843467058,-6.35160907436146,,,,
8220DB002245,2245.0,Laurence Brook,,53.3494632047044,-6.34828421128998,,,,
8220DB002246,2246.0,Chapelizod,,53.34827,-6.34363,,,,
8220DB002247,2247.0,St Mary's Hospital,,53.3467528589766,-6.33628291602209,,,,
8220DB002248,2248.0,Military Road,,53.3463209318655,-6.32788863731602,,,,
8220DB002249,2249.0,Garda Boat Club,,53.34658,-6.32125,,,,
8220DB002250,2250.0,Salmon Pool,,53.3474385870512,-6.31533304000412,,,,
8220DB002251,2251.0,Islandbridge Gate,,53.3481320367099,-6.31097979230894,,,,
8220DB002255,2255.0,East Wall Road,,53.3602300963722,-6.23826189020208,,,,
8220DB002256,2256.0,West Road,,53.3583489412297,-6.23565015244242,,,,
8220DB002257,2257.0,Strangford Road East,,53.3563824156513,-6.23821028357832,,,,
8220DB002258,2258.0,St Mary's Road,,53.3546537542947,-6.23801117708441,,,,
8220DB002259,2259.0,Church Road,,53.3535381306959,-6.23672019068215,,,,
8220DB002260,2260.0,Kilane Road,,53.3517785077757,-6.23503525981767,,,,
8220DB002261,2261.0,Church Court,,53.3526385466371,-6.23241589368512,,,,
8220DB002262,2262.0,Merchants Road,,53.3535229015383,-6.22659560204483,,,,
8220DB002264,2264.0,Alexandra Road,,53.3511016045535,-6.22092777641825,,,,
8220DB002265,2265.0,Bond Drive,,53.352115,-6.215298,,,,
8220DB002270,2270.0,Ferry Terminal,,53.345706120618,-6.1956186550476,,,,
8220DB002274,2274.0,Alexandra Road,,53.3501863044238,-6.2036311442849,,,,
8220DB002278,2278.0,East Road,,53.354371,-6.229865,,,,
8220DB002279,2279.0,Caledon Road,,53.3529413710509,-6.23162219875025,,,,
8220DB002280,2280.0,Oxford Terrace,,53.3523117215819,-6.23705623867306,,,,
8220DB002281,2281.0,St Mary's Road North,,53.3536641097546,-6.23673001255049,,,,
