[
    {
      "stop_id": "7010B158131",
      "stop_code": 158131,
      "stop_name": "Ulsterbus Depot",
      "stop_desc": "",
      "stop_lat": 54.9966287583853,
      "stop_lon": -7.31786633503893,
      "zone_id": "",
      "stop_url": "",
      "location_type": "",
      "parent_station": ""
    },
    {
      "stop_id": "7010B158241",
      "stop_code": 158241,
      "stop_name": "Magee Campus",
      "stop_desc": "",
      "stop_lat": 55.002956,
      "stop_lon": -7.322545,
      "zone_id": "",
      "stop_url": "",
      "location_type": "",
      "parent_station": ""
    },
    {
      "stop_id": "7020IR0037",
      "stop_code": "",
      "stop_name": "Lisburn",
      "stop_desc": "",
      "stop_lat": 54.513863,
      "stop_lon": -6.045132,
      "zone_id": "",
      "stop_url": "",
      "location_type": "",
      "parent_station": ""
    },
    {
      "stop_id": "7020IR2162",
      "stop_code": "",
      "stop_name": "Belfast",
      "stop_desc": "",
      "stop_lat": 54.594684,
      "stop_lon": -5.939831,
      "zone_id": "",
      "stop_url": "",
      "location_type": "",
      "parent_station": ""
    },
    {
      "stop_id": "7040B107131",
      "stop_code": 107131,
      "stop_name": "Cullaville",
      "stop_desc": "",
      "stop_lat": 54.0620448123748,
      "stop_lon": -6.64352516920916,
      "zone_id": "",
      "stop_url": "",
      "location_type": "",
      "parent_station": ""
    },
    {
      "stop_id": "7040B139481",
      "stop_code": 139481,
      "stop_name": "Newry",
      "stop_desc": "",
      "stop_lat": 54.1682530256848,
      "stop_lon": -6.33909756269821,
      "zone_id": "",
      "stop_url": "",
      "location_type": "",
      "parent_station": ""
    },
    {
      "stop_id": "7040B139491",
      "stop_code": 139491,
      "stop_name": "Buttercrane Shopping Centre",
      "stop_desc": "",
      "stop_lat": 54.172871,
      "stop_lon": -6.340996,
      "zone_id": "",
      "stop_url": "",
      "location_type": "",
      "parent_station": ""
    },
    {
      "stop_id": "7040B139501",
      "stop_code": 139501,
      "stop_name": "Newry",
      "stop_desc": "",
      "stop_lat": 54.172227,
      "stop_lon": -6.340441,
      "zone_id": "",
      "stop_url": "",
      "location_type": "",
      "parent_station": ""
    },
    {
      "stop_id": "7040B139511",
      "stop_code": 139511,
      "stop_name": "Newry (Opp Quay Shopping Centre)",
      "stop_desc": "",
      "stop_lat": 54.16869222,
      "stop_lon": -6.339018889,
      "zone_id": "",
      "stop_url": "",
      "location_type": "",
      "parent_station": ""
    },
    {
      "stop_id": "7040B139761",
      "stop_code": 139761,
      "stop_name": "Killeen Bridge",
      "stop_desc": "",
      "stop_lat": 54.131009,
      "stop_lon": -6.346082,
      "zone_id": "",
      "stop_url": "",
      "location_type": "",
      "parent_station": ""
    },
    {
      "stop_id": "7040B139771",
      "stop_code": 139771,
      "stop_name": "Killeen Bridge",
      "stop_desc": "",
      "stop_lat": 54.131023,
      "stop_lon": -6.346479,
      "zone_id": "",
      "stop_url": "",
      "location_type": "",
      "parent_station": ""
    },
    {
      "stop_id": "7040B139781",
      "stop_code": 139781,
      "stop_name": "Meigh Cross",
      "stop_desc": "",
      "stop_lat": 54.115863,
      "stop_lon": -6.357129,
      "zone_id": "",
      "stop_url": "",
      "location_type": "",
      "parent_station": ""
    },
    {
      "stop_id": "7040B139791",
      "stop_code": 139791,
      "stop_name": "Meigh Cross (Service Station)",
      "stop_desc": "",
      "stop_lat": 54.11589222,
      "stop_lon": -6.357278611,
      "zone_id": "",
      "stop_url": "",
      "location_type": "",
      "parent_station": ""
    },
    {
      "stop_id": "7040B150611",
      "stop_code": 150611,
      "stop_name": "Monaghan Street",
      "stop_desc": "",
      "stop_lat": 54.176486,
      "stop_lon": -6.34535,
      "zone_id": "",
      "stop_url": "",
      "location_type": "",
      "parent_station": ""
    },
    {
      "stop_id": "7040B156051",
      "stop_code": 156051,
      "stop_name": "Newry",
      "stop_desc": "",
      "stop_lat": 54.176002,
      "stop_lon": -6.339467,
      "zone_id": "",
      "stop_url": "",
      "location_type": "",
      "parent_station": ""
    },
    {
      "stop_id": "7040B156061",
      "stop_code": 156061,
      "stop_name": "Newry Bus Station",
      "stop_desc": "",
      "stop_lat": 54.1749986272411,
      "stop_lon": -6.340145,
      "zone_id": "",
      "stop_url": "",
      "location_type": "",
      "parent_station": ""
    },
    {
      "stop_id": "7040IR0042",
      "stop_code": "",
      "stop_name": "Newry",
      "stop_desc": "",
      "stop_lat": 54.188659,
      "stop_lon": -6.362413,
      "zone_id": "",
      "stop_url": "",
      "location_type": "",
      "parent_station": ""
    },
    {
      "stop_id": "7040IR0045",
      "stop_code": "",
      "stop_name": "Portadown",
      "stop_desc": "",
      "stop_lat": 54.424993,
      "stop_lon": -6.445312,
      "zone_id": "",
      "stop_url": "",
      "location_type": "",
      "parent_station": ""
    },
    {
      "stop_id": "7040IR0090",
      "stop_code": "",
      "stop_name": "Lurgan",
      "stop_desc": "",
      "stop_lat": 54.467011,
      "stop_lon": -6.338528,
      "zone_id": "",
      "stop_url": "",
      "location_type": "",
      "parent_station": ""
    },
    {
      "stop_id": "7050B108081",
      "stop_code": 108081,
      "stop_name": "Enniskillen",
      "stop_desc": "",
      "stop_lat": 54.3436944286399,
      "stop_lon": -7.64007888696494,
      "zone_id": "",
      "stop_url": "",
      "location_type": "",
      "parent_station": ""
    },
    {
      "stop_id": "7050B140871",
      "stop_code": 140871,
      "stop_name": "Derrylin",
      "stop_desc": "",
      "stop_lat": 54.191672,
      "stop_lon": -7.565929,
      "zone_id": "",
      "stop_url": "",
      "location_type": "",
      "parent_station": ""
    },
    {
      "stop_id": "7050B1409001",
      "stop_code": 140901,
      "stop_name": "Bellanaleck",
      "stop_desc": "",
      "stop_lat": 54.2950047241065,
      "stop_lon": -7.63801510677572,
      "zone_id": "",
      "stop_url": "",
      "location_type": "",
      "parent_station": ""
    },
    {
      "stop_id": "7050B141541",
      "stop_code": 141541,
      "stop_name": "Belleek",
      "stop_desc": "",
      "stop_lat": 54.4761705959608,
      "stop_lon": -8.09450198679982,
      "zone_id": "",
      "stop_url": "",
      "location_type": "",
      "parent_station": ""
    },
    {
      "stop_id": "7050B1415501",
      "stop_code": 141551,
      "stop_name": "Bellanaleck",
      "stop_desc": "",
      "stop_lat": 54.2950580826928,
      "stop_lon": -7.63783030428049,
      "zone_id": "",
      "stop_url": "",
      "location_type": "",
      "parent_station": ""
    },
    {
      "stop_id": "7050B141561",
      "stop_code": 141561,
      "stop_name": "Derrylin",
      "stop_desc": "",
      "stop_lat": 54.191678,
      "stop_lon": -7.565736,
      "zone_id": "",
      "stop_url": "",
      "location_type": "",
      "parent_station": ""
    },
    {
      "stop_id": "7050B630091",
      "stop_code": 630091,
      "stop_name": "Letterbreen",
      "stop_desc": "",
      "stop_lat": 54.3092870556637,
      "stop_lon": -7.73268562828709,
      "zone_id": "",
      "stop_url": "",
      "location_type": "",
      "parent_station": ""
    },
    {
      "stop_id": "7050B630101",
      "stop_code": 630101,
      "stop_name": "Letterbreen",
      "stop_desc": "",
      "stop_lat": 54.3094925605682,
      "stop_lon": -7.73216183422823,
      "zone_id": "",
      "stop_url": "",
      "location_type": "",
      "parent_station": ""
    },
    {
      "stop_id": "7050B6310001",
      "stop_code": 631001,
      "stop_name": "Belcoo",
      "stop_desc": "",
      "stop_lat": 54.297258,
      "stop_lon": -7.869896,
      "zone_id": "",
      "stop_url": "",
      "location_type": "",
      "parent_station": ""
    },
    {
      "stop_id": "7050B631071",
      "stop_code": 631071,
      "stop_name": "Loughview Drive",
      "stop_desc": "",
      "stop_lat": 54.297373889864,
      "stop_lon": -7.8701144779675,
      "zone_id": "",
      "stop_url": "",
      "location_type": "",
      "parent_station": ""
    },
    {
      "stop_id": "7060B152481",
      "stop_code": 152481,
      "stop_name": "Sion Mills",
      "stop_desc": "",
      "stop_lat": 54.7843117247012,
      "stop_lon": -7.4716367976002,
      "zone_id": "",
      "stop_url": "",
      "location_type": "",
      "parent_station": ""
    },
    {
      "stop_id": "7060B156031",
      "stop_code": 156031,
      "stop_name": "Ballygawley",
      "stop_desc": "",
      "stop_lat": 54.456349,
      "stop_lon": -7.033901,
      "zone_id": "",
      "stop_url": "",
      "location_type": "",
      "parent_station": ""
    },
    {
      "stop_id": "7060B157111",
      "stop_code": 157111,
      "stop_name": "Newtownstewart",
      "stop_desc": "",
      "stop_lat": 54.7218905194398,
      "stop_lon": -7.37298186024223,
      "zone_id": "",
      "stop_url": "",
      "location_type": "",
      "parent_station": ""
    },
    {
      "stop_id": "7060B158031",
      "stop_code": 158031,
      "stop_name": "Ulsterbus Depot",
      "stop_desc": "",
      "stop_lat": 54.601343,
      "stop_lon": -7.30175,
      "zone_id": "",
      "stop_url": "",
      "location_type": "",
      "parent_station": ""
    },
    {
      "stop_id": "7060B1581001",
      "stop_code": 158101,
      "stop_name": "Newtownstewart",
      "stop_desc": "",
      "stop_lat": 54.7217738838126,
      "stop_lon": -7.37301470512109,
      "zone_id": "",
      "stop_url": "",
      "location_type": "",
      "parent_station": ""
    },
    {
      "stop_id": "7060B158121",
      "stop_code": 158121,
      "stop_name": "Bradley Way",
      "stop_desc": "",
      "stop_lat": 54.8265068781516,
      "stop_lon": -7.47009002495236,
      "zone_id": "",
      "stop_url": "",
      "location_type": "",
      "parent_station": ""
    },
    {
      "stop_id": "7060B1581401",
      "stop_code": 158141,
      "stop_name": "Sion Mills",
      "stop_desc": "",
      "stop_lat": 54.785779358327,
      "stop_lon": -7.47234836164944,
      "zone_id": "",
      "stop_url": "",
      "location_type": "",
      "parent_station": ""
    },
    {
      "stop_id": "7060B158181",
      "stop_code": 158181,
      "stop_name": "Canal Street",
      "stop_desc": "",
      "stop_lat": 54.8277460618064,
      "stop_lon": -7.46378639704708,
      "zone_id": "",
      "stop_url": "",
      "location_type": "",
      "parent_station": ""
    },
    {
      "stop_id": "8210B111621",
      "stop_code": 111621,
      "stop_name": "St. Patrick's Avenue",
      "stop_desc": "",
      "stop_lat": 52.83712389,
      "stop_lon": -6.914670278,
      "zone_id": "",
      "stop_url": "",
      "location_type": "",
      "parent_station": ""
    },
    {
      "stop_id": "8210B111891",
      "stop_code": 111891,
      "stop_name": "Sleaty Street",
      "stop_desc": "",
      "stop_lat": 52.84414778,
      "stop_lon": -6.9397625,
      "zone_id": "",
      "stop_url": "",
      "location_type": "",
      "parent_station": ""
    },
    {
      "stop_id": "8210B1340201",
      "stop_code": 134021,
      "stop_name": "Hacketstown",
      "stop_desc": "",
      "stop_lat": 52.865375,
      "stop_lon": -6.558453,
      "zone_id": "",
      "stop_url": "",
      "location_type": "",
      "parent_station": ""
    },
    {
      "stop_id": "8210B136061",
      "stop_code": 136061,
      "stop_name": "SETU Carlow",
      "stop_desc": "",
      "stop_lat": 52.8299811805242,
      "stop_lon": -6.93597455431291,
      "zone_id": "",
      "stop_url": "",
      "location_type": "",
      "parent_station": ""
    },
    {
      "stop_id": "8210B1360701",
      "stop_code": 136071,
      "stop_name": "Leighlinbridge Cross",
      "stop_desc": "",
      "stop_lat": 52.735531445787,
      "stop_lon": -6.98709757456481,
      "zone_id": "",
      "stop_url": "",
      "location_type": "",
      "parent_station": ""
    },
    {
      "stop_id": "8210B136211",
      "stop_code": 136211,
      "stop_name": "Rathvilly",
      "stop_desc": "",
      "stop_lat": 52.8805507014169,
      "stop_lon": -6.69556191940628,
      "zone_id": "",
      "stop_url": "",
      "location_type": "",
      "parent_station": ""
    },
    {
      "stop_id": "8210B136231",
      "stop_code": 136231,
      "stop_name": "Hacketstown",
      "stop_desc": "",
      "stop_lat": 52.865221,
      "stop_lon": -6.558399,
      "zone_id": "",
      "stop_url": "",
      "location_type": "",
      "parent_station": ""
    },
    {
      "stop_id": "8210B153991",
      "stop_code": 153991,
      "stop_name": "Tullow North",
      "stop_desc": "",
      "stop_lat": 52.8048199890738,
      "stop_lon": -6.73250639090103,
      "zone_id": "",
      "stop_url": "",
      "location_type": "",
      "parent_station": ""
    },
    {
      "stop_id": "8210B154001",
      "stop_code": 154001,
      "stop_name": "Tullow North",
      "stop_desc": "",
      "stop_lat": 52.8046580908354,
      "stop_lon": -6.73249626766088,
      "zone_id": "",
      "stop_url": "",
      "location_type": "",
      "parent_station": ""
    },
    {
      "stop_id": "8210B202101",
      "stop_code": 202101,
      "stop_name": "Wexford Road Business Park",
      "stop_desc": "",
      "stop_lat": 52.820615,
      "stop_lon": -6.897133333,
      "zone_id": "",
      "stop_url": "",
      "location_type": "",
      "parent_station": ""
    },
    {
      "stop_id": "8210B335561",
      "stop_code": 335561,
      "stop_name": "Barrack Street",
      "stop_desc": "",
      "stop_lat": 52.8353868712984,
      "stop_lon": -6.92542345782427,
      "zone_id": "",
      "stop_url": "",
      "location_type": "",
      "parent_station": ""
    },
    {
      "stop_id": "8210B3355701",
      "stop_code": 335571,
      "stop_name": "Hanover Bus Park",
      "stop_desc": "",
      "stop_lat": 52.833738,
      "stop_lon": -6.926948,
      "zone_id": "",
      "stop_url": "",
      "location_type": "",
      "parent_station": ""
    },
    {
      "stop_id": "8210B339081",
      "stop_code": 339081,
      "stop_name": "Seskin Road",
      "stop_desc": "",
      "stop_lat": 52.7388720012359,
      "stop_lon": -6.98568732045988,
      "zone_id": "",
      "stop_url": "",
      "location_type": "",
      "parent_station": ""
    },
    {
      "stop_id": "8210B3394301",
      "stop_code": 339431,
      "stop_name": "Royal Oak Road",
      "stop_desc": "",
      "stop_lat": 52.704245,
      "stop_lon": -6.984179,
      "zone_id": "",
      "stop_url": "",
      "location_type": "",
      "parent_station": ""
    },
    {
      "stop_id": "8210B3511401",
      "stop_code": 351141,
      "stop_name": "Rathvilly",
      "stop_desc": "",
      "stop_lat": 52.8806191573759,
      "stop_lon": -6.69524785426883,
      "zone_id": "",
      "stop_url": "",
      "location_type": "",
      "parent_station": ""
    },
    {
      "stop_id": "8210B3511801",
      "stop_code": 351181,
      "stop_name": "Kildavin",
      "stop_desc": "",
      "stop_lat": 52.683916,
      "stop_lon": -6.685386,
      "zone_id": "",
      "stop_url": "",
      "location_type": "",
      "parent_station": ""
    },
    {
      "stop_id": "8210B351711",
      "stop_code": 351711,
      "stop_name": "Ballon",
      "stop_desc": "",
      "stop_lat": 52.7401879532436,
      "stop_lon": -6.77039976288263,
      "zone_id": "",
      "stop_url": "",
      "location_type": "",
      "parent_station": ""
    },
    {
      "stop_id": "8210B351721",
      "stop_code": 351721,
      "stop_name": "Ballon",
      "stop_desc": "",
      "stop_lat": 52.7400872675218,
      "stop_lon": -6.77022488071272,
      "zone_id": "",
      "stop_url": "",
      "location_type": "",
      "parent_station": ""
    },
    {
      "stop_id": "8210B5981201",
      "stop_code": 598121,
      "stop_name": "SETU Carlow",
      "stop_desc": "",
      "stop_lat": 52.8300543996409,
      "stop_lon": -6.93612116551754,
      "zone_id": "",
      "stop_url": "",
      "location_type": "",
      "parent_station": ""
    },
    {
      "stop_id": "8210CO11091",
      "stop_code": 201001,
      "stop_name": "Tyndall College",
      "stop_desc": "",
      "stop_lat": 52.8191870838225,
      "stop_lon": -6.94511035027316,
      "zone_id": "",
      "stop_url": "",
      "location_type": "",
      "parent_station": ""
    },
    {
      "stop_id": "8210CO11092",
      "stop_code": 11092,
      "stop_name": "South East T.U.",
      "stop_desc": "",
      "stop_lat": 52.8258575132511,
      "stop_lon": -6.93718820056314,
      "zone_id": "",
      "stop_url": "",
      "location_type": "",
      "parent_station": ""
    },
    {
      "stop_id": "8210CO11093",
      "stop_code": 110931,
      "stop_name": "Bourlum Wood",
      "stop_desc": "",
      "stop_lat": 52.8234089692559,
      "stop_lon": -6.93576417315221,
      "zone_id": "",
      "stop_url": "",
      "location_type": "",
      "parent_station": ""
    },
    {
      "stop_id": "8210CO11094",
      "stop_code": 110941,
      "stop_name": "Green Road",
      "stop_desc": "",
      "stop_lat": 52.8254972225156,
      "stop_lon": -6.93409575023232,
      "zone_id": "",
      "stop_url": "",
      "location_type": "",
      "parent_station": ""
    },
    {
      "stop_id": "8210CO11095",
      "stop_code": 110951,
      "stop_name": "New Street",
      "stop_desc": "",
      "stop_lat": 52.8297293080953,
      "stop_lon": -6.93094997361145,
      "zone_id": "",
      "stop_url": "",
      "location_type": "",
      "parent_station": ""
    },
    {
      "stop_id": "8210CO11096",
      "stop_code": 110961,
      "stop_name": "Hanover Road",
      "stop_desc": "",
      "stop_lat": 52.831402788289,
      "stop_lon": -6.92914286697322,
      "zone_id": "",
      "stop_url": "",
      "location_type": "",
      "parent_station": ""
    },
    {
      "stop_id": "8210CO11098",
      "stop_code": 110981,
      "stop_name": "Fire Station",
      "stop_desc": "",
      "stop_lat": 52.8368675177698,
      "stop_lon": -6.92317539653795,
      "zone_id": "",
      "stop_url": "",
      "location_type": "",
      "parent_station": ""
    },
    {
      "stop_id": "8210CO11099",
      "stop_code": 110991,
      "stop_name": "Green Lane",
      "stop_desc": "",
      "stop_lat": 52.8412390151113,
      "stop_lon": -6.91760470744884,
      "zone_id": "",
      "stop_url": "",
      "location_type": "",
      "parent_station": ""
    },
    {
      "stop_id": "8210CO11100",
      "stop_code": 111001,
      "stop_name": "Deerpark",
      "stop_desc": "",
      "stop_lat": 52.8450256052914,
      "stop_lon": -6.910028568691,
      "zone_id": "",
      "stop_url": "",
      "location_type": "",
      "parent_station": ""
    },
    {
      "stop_id": "8210CO11101",
      "stop_code": 111011,
      "stop_name": "O'Brien Road",
      "stop_desc": "",
      "stop_lat": 52.8404323530783,
      "stop_lon": -6.90901547710549,
      "zone_id": "",
      "stop_url": "",
      "location_type": "",
      "parent_station": ""
    },
    {
      "stop_id": "8210CO11102",
      "stop_code": 201041,
      "stop_name": "Sandhills",
      "stop_desc": "",
      "stop_lat": 52.8396015413723,
      "stop_lon": -6.90468720511796,
      "zone_id": "",
      "stop_url": "",
      "location_type": "",
      "parent_station": ""
    },
    {
      "stop_id": "8210CO11103",
      "stop_code": 201051,
      "stop_name": "Burrindale",
      "stop_desc": "",
      "stop_lat": 52.8417185632881,
      "stop_lon": -6.90228857084598,
      "zone_id": "",
      "stop_url": "",
      "location_type": "",
      "parent_station": ""
    },
    {
      "stop_id": "8210CO11104",
      "stop_code": 111041,
      "stop_name": "Beechwood Park",
      "stop_desc": "",
      "stop_lat": 52.8447290479015,
      "stop_lon": -6.8993178483131,
      "zone_id": "",
      "stop_url": "",
      "location_type": "",
      "parent_station": ""
    },
    {
      "stop_id": "8210CO11105",
      "stop_code": 201061,
      "stop_name": "Tinteán Coille",
      "stop_desc": "",
      "stop_lat": 52.8467534919845,
      "stop_lon": -6.89567396632087,
      "zone_id": "",
      "stop_url": "",
      "location_type": "",
      "parent_station": ""
    },
    {
      "stop_id": "8210CO11106",
      "stop_code": 201111,
      "stop_name": "MSD Carlow",
      "stop_desc": "",
      "stop_lat": 52.8542540707242,
      "stop_lon": -6.88461459284746,
      "zone_id": "",
      "stop_url": "",
      "location_type": "",
      "parent_station": ""
    },
    {
      "stop_id": "8210CO11108",
      "stop_code": 111231,
      "stop_name": "Tinteán Coille",
      "stop_desc": "",
      "stop_lat": 52.846704695522,
      "stop_lon": -6.89525952315287,
      "zone_id": "",
      "stop_url": "",
      "location_type": "",
      "parent_station": ""
    },
    {
      "stop_id": "8210CO11109",
      "stop_code": 111091,
      "stop_name": "Beechwood Park",
      "stop_desc": "",
      "stop_lat": 52.8449237128477,
      "stop_lon": -6.89898633164315,
      "zone_id": "",
      "stop_url": "",
      "location_type": "",
      "parent_station": ""
    },
    {
      "stop_id": "8210CO11110",
      "stop_code": 111101,
      "stop_name": "Burrindale",
      "stop_desc": "",
      "stop_lat": 52.8419495927723,
      "stop_lon": -6.90200070569607,
      "zone_id": "",
      "stop_url": "",
      "location_type": "",
      "parent_station": ""
    },
    {
      "stop_id": "8210CO11111",
      "stop_code": 111241,
      "stop_name": "Sandhills",
      "stop_desc": "",
      "stop_lat": 52.8394110378197,
      "stop_lon": -6.90742315927646,
      "zone_id": "",
      "stop_url": "",
      "location_type": "",
      "parent_station": ""
    },
    {
      "stop_id": "8210CO11112",
      "stop_code": 111121,
      "stop_name": "O'Brien Road",
      "stop_desc": "",
      "stop_lat": 52.8408841108663,
      "stop_lon": -6.90927134174724,
      "zone_id": "",
      "stop_url": "",
      "location_type": "",
      "parent_station": ""
    },
    {
      "stop_id": "8210CO11113",
      "stop_code": 111131,
      "stop_name": "Deerpark",
      "stop_desc": "",
      "stop_lat": 52.8447843441739,
      "stop_lon": -6.91018306196077,
      "zone_id": "",
      "stop_url": "",
      "location_type": "",
      "parent_station": ""
    },
    {
      "stop_id": "8210CO11114",
      "stop_code": 111141,
      "stop_name": "Green Lane",
      "stop_desc": "",
      "stop_lat": 52.8417803986177,
      "stop_lon": -6.9168490415088,
      "zone_id": "",
      "stop_url": "",
      "location_type": "",
      "parent_station": ""
    },
    {
      "stop_id": "8210CO11115",
      "stop_code": 111151,
      "stop_name": "Fire Station",
      "stop_desc": "",
      "stop_lat": 52.8369802982362,
      "stop_lon": -6.92272733445909,
      "zone_id": "",
      "stop_url": "",
      "location_type": "",
      "parent_station": ""
    },
    {
      "stop_id": "8210CO11117",
      "stop_code": 111171,
      "stop_name": "Hanover Road",
      "stop_desc": "",
      "stop_lat": 52.8318567971016,
      "stop_lon": -6.92865680006758,
      "zone_id": "",
      "stop_url": "",
      "location_type": "",
      "parent_station": ""
    },
    {
      "stop_id": "8210CO11118",
      "stop_code": 111181,
      "stop_name": "New Street",
      "stop_desc": "",
      "stop_lat": 52.8290335983512,
      "stop_lon": -6.93154580133862,
      "zone_id": "",
      "stop_url": "",
      "location_type": "",
      "parent_station": ""
    },
    {
      "stop_id": "8210CO11119",
      "stop_code": 111191,
      "stop_name": "Green Road",
      "stop_desc": "",
      "stop_lat": 52.8257379835869,
      "stop_lon": -6.93388211775064,
      "zone_id": "",
      "stop_url": "",
      "location_type": "",
      "parent_station": ""
    },
    {
      "stop_id": "8210CO11120",
      "stop_code": 111201,
      "stop_name": "Bourlum Wood",
      "stop_desc": "",
      "stop_lat": 52.823007517304,
      "stop_lon": -6.93610041018636,
      "zone_id": "",
      "stop_url": "",
      "location_type": "",
      "parent_station": ""
    },
    {
      "stop_id": "8210CO11121",
      "stop_code": 111211,
      "stop_name": "South East Technological University",
      "stop_desc": "",
      "stop_lat": 52.825967,
      "stop_lon": -6.937364,
      "zone_id": "",
      "stop_url": "",
      "location_type": "",
      "parent_station": ""
    },
    {
      "stop_id": "8210CO11122",
      "stop_code": 111221,
      "stop_name": "Southern Gardens",
      "stop_desc": "",
      "stop_lat": 52.8225722592465,
      "stop_lon": -6.94170477213663,
      "zone_id": "",
      "stop_url": "",
      "location_type": "",
      "parent_station": ""
    },
    {
      "stop_id": "8210CO11123",
      "stop_code": 201011,
      "stop_name": "Tyndall College",
      "stop_desc": "",
      "stop_lat": 52.819176383642,
      "stop_lon": -6.94491773727636,
      "zone_id": "",
      "stop_url": "",
      "location_type": "",
      "parent_station": ""
    },
    {
      "stop_id": "8210CO11125",
      "stop_code": 111251,
      "stop_name": "Sleaty Street",
      "stop_desc": "",
      "stop_lat": 52.8439996189565,
      "stop_lon": -6.93965480353861,
      "zone_id": "",
      "stop_url": "",
      "location_type": "",
      "parent_station": ""
    },
    {
      "stop_id": "8210CO11126",
      "stop_code": 111261,
      "stop_name": "Duggan Avenue",
      "stop_desc": "",
      "stop_lat": 52.8404906097978,
      "stop_lon": -6.93824108301806,
      "zone_id": "",
      "stop_url": "",
      "location_type": "",
      "parent_station": ""
    },
    {
      "stop_id": "8210CO11127",
      "stop_code": 113911,
      "stop_name": "Maryborough Street",
      "stop_desc": "",
      "stop_lat": 52.8370852558864,
      "stop_lon": -6.93836866743233,
      "zone_id": "",
      "stop_url": "",
      "location_type": "",
      "parent_station": ""
    },
    {
      "stop_id": "8210CO11128",
      "stop_code": 111281,
      "stop_name": "Castle",
      "stop_desc": "",
      "stop_lat": 52.8366214166072,
      "stop_lon": -6.93575289664159,
      "zone_id": "",
      "stop_url": "",
      "location_type": "",
      "parent_station": ""
    },
    {
      "stop_id": "8210CO11129",
      "stop_code": 111291,
      "stop_name": "Kennedy Avenue",
      "stop_desc": "",
      "stop_lat": 52.8356578550039,
      "stop_lon": -6.93154649642024,
      "zone_id": "",
      "stop_url": "",
      "location_type": "",
      "parent_station": ""
    },
    {
      "stop_id": "8210CO11132",
      "stop_code": 111321,
      "stop_name": "Pollerton Road",
      "stop_desc": "",
      "stop_lat": 52.836836,
      "stop_lon": -6.918723,
      "zone_id": "",
      "stop_url": "",
      "location_type": "",
      "parent_station": ""
    },
    {
      "stop_id": "8210CO11133",
      "stop_code": 111331,
      "stop_name": "St Patrick's Avenue",
      "stop_desc": "",
      "stop_lat": 52.8372550548162,
      "stop_lon": -6.91440872847484,
      "zone_id": "",
      "stop_url": "",
      "location_type": "",
      "parent_station": ""
    },
    {
      "stop_id": "8210CO11134",
      "stop_code": 111341,
      "stop_name": "Laurence O'Toole's",
      "stop_desc": "",
      "stop_lat": 52.8386832135007,
      "stop_lon": -6.91135998212367,
      "zone_id": "",
      "stop_url": "",
      "location_type": "",
      "parent_station": ""
    },
    {
      "stop_id": "8210CO11135",
      "stop_code": 113921,
      "stop_name": "Askea",
      "stop_desc": "",
      "stop_lat": 52.8353793345851,
      "stop_lon": -6.91078955687866,
      "zone_id": "",
      "stop_url": "",
      "location_type": "",
      "parent_station": ""
    },
    {
      "stop_id": "8210CO11138",
      "stop_code": 113951,
      "stop_name": "Tullow Road",
      "stop_desc": "",
      "stop_lat": 52.8314644864729,
      "stop_lon": -6.9073109176096,
      "zone_id": "",
      "stop_url": "",
      "location_type": "",
      "parent_station": ""
    },
    {
      "stop_id": "8210CO11139",
      "stop_code": 111391,
      "stop_name": "The Orchards",
      "stop_desc": "",
      "stop_lat": 52.8299889505304,
      "stop_lon": -6.90325209027016,
      "zone_id": "",
      "stop_url": "",
      "location_type": "",
      "parent_station": ""
    },
    {
      "stop_id": "8210CO11140",
      "stop_code": 113961,
      "stop_name": "Wallsforge",
      "stop_desc": "",
      "stop_lat": 52.8279700794832,
      "stop_lon": -6.89974148791186,
      "zone_id": "",
      "stop_url": "",
      "location_type": "",
      "parent_station": ""
    },
    {
      "stop_id": "8210CO11143",
      "stop_code": 111431,
      "stop_name": "Wallsforge",
      "stop_desc": "",
      "stop_lat": 52.8278059924327,
      "stop_lon": -6.89949336531098,
      "zone_id": "",
      "stop_url": "",
      "location_type": "",
      "parent_station": ""
    },
    {
      "stop_id": "8210CO11145",
      "stop_code": 112031,
      "stop_name": "Tullow Road",
      "stop_desc": "",
      "stop_lat": 52.8311908061556,
      "stop_lon": -6.90687257180522,
      "zone_id": "",
      "stop_url": "",
      "location_type": "",
      "parent_station": ""
    },
    {
      "stop_id": "8210CO11146",
      "stop_code": 113931,
      "stop_name": "Ashgrove",
      "stop_desc": "",
      "stop_lat": 52.8306394370105,
      "stop_lon": -6.91240699355307,
      "zone_id": "",
      "stop_url": "",
      "location_type": "",
      "parent_station": ""
    },
    {
      "stop_id": "8210CO11147",
      "stop_code": 113941,
      "stop_name": "Idrone Park",
      "stop_desc": "",
      "stop_lat": 52.8330663423838,
      "stop_lon": -6.91340008908471,
      "zone_id": "",
      "stop_url": "",
      "location_type": "",
      "parent_station": ""
    },
    {
      "stop_id": "8210CO11148",
      "stop_code": 111461,
      "stop_name": "Askea",
      "stop_desc": "",
      "stop_lat": 52.8352572048558,
      "stop_lon": -6.91119334211128,
      "zone_id": "",
      "stop_url": "",
      "location_type": "",
      "parent_station": ""
    },
    {
      "stop_id": "8210CO11149",
      "stop_code": 111601,
      "stop_name": "Laurence O'Toole's",
      "stop_desc": "",
      "stop_lat": 52.838257459751,
      "stop_lon": -6.91197918691955,
      "zone_id": "",
      "stop_url": "",
      "location_type": "",
      "parent_station": ""
    },
    {
      "stop_id": "8210CO11151",
      "stop_code": 113131,
      "stop_name": "Pollerton Road",
      "stop_desc": "",
      "stop_lat": 52.836699,
      "stop_lon": -6.919424,
      "zone_id": "",
      "stop_url": "",
      "location_type": "",
      "parent_station": ""
    },
    {
      "stop_id": "8210CO11154",
      "stop_code": 111821,
      "stop_name": "Kennedy Avenue",
      "stop_desc": "",
      "stop_lat": 52.8354234140417,
      "stop_lon": -6.93146319884081,
      "zone_id": "",
      "stop_url": "",
      "location_type": "",
      "parent_station": ""
    },
    {
      "stop_id": "8210CO11155",
      "stop_code": 111861,
      "stop_name": "Castle",
      "stop_desc": "",
      "stop_lat": 52.8366511683206,
      "stop_lon": -6.93606385727494,
      "zone_id": "",
      "stop_url": "",
      "location_type": "",
      "parent_station": ""
    },
    {
      "stop_id": "8210CO11156",
      "stop_code": 111871,
      "stop_name": "Maryborough Street",
      "stop_desc": "",
      "stop_lat": 52.8378666532649,
      "stop_lon": -6.93830508322329,
      "zone_id": "",
      "stop_url": "",
      "location_type": "",
      "parent_station": ""
    },
    {
      "stop_id": "8210CO11157",
      "stop_code": 111881,
      "stop_name": "Duggan Avenue",
      "stop_desc": "",
      "stop_lat": 52.8398593226449,
      "stop_lon": -6.93800414411021,
      "zone_id": "",
      "stop_url": "",
      "location_type": "",
      "parent_station": ""
    },
    {
      "stop_id": "8210CO11159",
      "stop_code": 202001,
      "stop_name": "Barrow Valley",
      "stop_desc": "",
      "stop_lat": 52.845344415256,
      "stop_lon": -6.94330365849208,
      "zone_id": "",
      "stop_url": "",
      "location_type": "",
      "parent_station": ""
    },
    {
      "stop_id": "8210CO11444",
      "stop_code": 111421,
      "stop_name": "The Orchards",
      "stop_desc": "",
      "stop_lat": 52.8301367021632,
      "stop_lon": -6.90367873188434,
      "zone_id": "",
      "stop_url": "",
      "location_type": "",
      "parent_station": ""
    },
    {
      "stop_id": "8210IR0001",
      "stop_code": "",
      "stop_name": "Muine Bheag (Bagenalstown)",
      "stop_desc": "",
      "stop_lat": 52.69918,
      "stop_lon": -6.952653,
      "zone_id": "",
      "stop_url": "",
      "location_type": "",
      "parent_station": ""
    },
    {
      "stop_id": "8210IR0002",
      "stop_code": "",
      "stop_name": "Carlow",
      "stop_desc": "",
      "stop_lat": 52.840788,
      "stop_lon": -6.922622,
      "zone_id": "",
      "stop_url": "",
      "location_type": "",
      "parent_station": ""
    },
    {
      "stop_id": 822008203,
      "stop_code": 8203,
      "stop_name": "Visitor Centre",
      "stop_desc": "",
      "stop_lat": 53.36469,
      "stop_lon": -6.33167,
      "zone_id": "",
      "stop_url": "",
      "location_type": "",
      "parent_station": ""
    },
    {
      "stop_id": 822008204,
      "stop_code": 8204,
      "stop_name": "Áras an Uachtaráin",
      "stop_desc": "",
      "stop_lat": 53.35938,
      "stop_lon": -6.32384,
      "zone_id": "",
      "stop_url": "",
      "location_type": "",
      "parent_station": ""
    },
    {
      "stop_id": 822008205,
      "stop_code": 8205,
      "stop_name": "Dublin Zoo",
      "stop_desc": "",
      "stop_lat": 53.35173,
      "stop_lon": -6.30548,
      "zone_id": "",
      "stop_url": "",
      "location_type": "",
      "parent_station": ""
    },
    {
      "stop_id": 822008206,
      "stop_code": 8206,
      "stop_name": "Park Gates",
      "stop_desc": "",
      "stop_lat": 53.34884,
      "stop_lon": -6.29777,
      "zone_id": "",
      "stop_url": "",
      "location_type": "",
      "parent_station": ""
    },
    {
      "stop_id": 822008208,
      "stop_code": 8208,
      "stop_name": "Park Gates",
      "stop_desc": "",
      "stop_lat": 53.348995,
      "stop_lon": -6.298737,
      "zone_id": "",
      "stop_url": "",
      "location_type": "",
      "parent_station": ""
    },
    {
      "stop_id": 822008209,
      "stop_code": 8209,
      "stop_name": "Dublin Zoo",
      "stop_desc": "",
      "stop_lat": 53.35169,
      "stop_lon": -6.3057,
      "zone_id": "",
      "stop_url": "",
      "location_type": "",
      "parent_station": ""
    },
    {
      "stop_id": 822008210,
      "stop_code": 8210,
      "stop_name": "Áras an Uachtaráin",
      "stop_desc": "",
      "stop_lat": 53.358951,
      "stop_lon": -6.32316,
      "zone_id": "",
      "stop_url": "",
      "location_type": "",
      "parent_station": ""
    },
    {
      "stop_id": "8220B1000401",
      "stop_code": 100041,
      "stop_name": "Clare Street",
      "stop_desc": "",
      "stop_lat": 53.341434,
      "stop_lon": -6.251562,
      "zone_id": "",
      "stop_url": "",
      "location_type": "",
      "parent_station": ""
    },
    {
      "stop_id": "8220B100111",
      "stop_code": 100111,
      "stop_name": "Westland Row",
      "stop_desc": "",
      "stop_lat": 53.343163,
      "stop_lon": -6.249959,
      "zone_id": "",
      "stop_url": "",
      "location_type": "",
      "parent_station": ""
    },
    {
      "stop_id": "8220B100351",
      "stop_code": 100351,
      "stop_name": "Merrion Square North",
      "stop_desc": "",
      "stop_lat": 53.3409427335809,
      "stop_lon": -6.24994529768875,
      "zone_id": "",
      "stop_url": "",
      "location_type": "",
      "parent_station": ""
    },
    {
      "stop_id": "8220B100461",
      "stop_code": 100461,
      "stop_name": "Merrion Road",
      "stop_desc": "",
      "stop_lat": 53.3283555138789,
      "stop_lon": -6.22837542799152,
      "zone_id": "",
      "stop_url": "",
      "location_type": "",
      "parent_station": ""
    },
    {
      "stop_id": "8220B1009001",
      "stop_code": 100901,
      "stop_name": "St Margaret's Road",
      "stop_desc": "",
      "stop_lat": 53.4001982314926,
      "stop_lon": -6.30834665852557,
      "zone_id": "",
      "stop_url": "",
      "location_type": "",
      "parent_station": ""
    },
    {
      "stop_id": "8220B1011301",
      "stop_code": 101131,
      "stop_name": "North Road",
      "stop_desc": "",
      "stop_lat": 53.40014650036,
      "stop_lon": -6.30786746825518,
      "zone_id": "",
      "stop_url": "",
      "location_type": "",
      "parent_station": ""
    },
    {
      "stop_id": "8220B1011501",
      "stop_code": 101151,
      "stop_name": "Glasnevin",
      "stop_desc": "",
      "stop_lat": 53.369942933041,
      "stop_lon": -6.27806175078419,
      "zone_id": "",
      "stop_url": "",
      "location_type": "",
      "parent_station": ""
    },
    {
      "stop_id": "8220B1021101",
      "stop_code": 102111,
      "stop_name": "Bachelors Walk",
      "stop_desc": "",
      "stop_lat": 53.346833,
      "stop_lon": -6.262471,
      "zone_id": "",
      "stop_url": "",
      "location_type": "",
      "parent_station": ""
    },
    {
      "stop_id": "8220B1046101",
      "stop_code": 104611,
      "stop_name": "Merrion Row",
      "stop_desc": "",
      "stop_lat": 53.3385331896343,
      "stop_lon": -6.25480444135106,
      "zone_id": "",
      "stop_url": "",
      "location_type": "",
      "parent_station": ""
    },
    {
      "stop_id": "8220B106421",
      "stop_code": 106421,
      "stop_name": "3Arena",
      "stop_desc": "",
      "stop_lat": 53.346899,
      "stop_lon": -6.229431,
      "zone_id": "",
      "stop_url": "",
      "location_type": "",
      "parent_station": ""
    },
    {
      "stop_id": "8220B10995",
      "stop_code": 10995,
      "stop_name": "Heuston Station",
      "stop_desc": "",
      "stop_lat": 53.3458575428185,
      "stop_lon": -6.29388714847594,
      "zone_id": "",
      "stop_url": "",
      "location_type": "",
      "parent_station": ""
    },
    {
      "stop_id": "8220B111761",
      "stop_code": 111761,
      "stop_name": "Westland Row Church",
      "stop_desc": "",
      "stop_lat": 53.342626,
      "stop_lon": -6.250132,
      "zone_id": "",
      "stop_url": "",
      "location_type": "",
      "parent_station": ""
    },
    {
      "stop_id": "8220B111771",
      "stop_code": 111771,
      "stop_name": "Irish Life",
      "stop_desc": "",
      "stop_lat": 53.349115135278,
      "stop_lon": -6.25561891627054,
      "zone_id": "",
      "stop_url": "",
      "location_type": "",
      "parent_station": ""
    },
    {
      "stop_id": "8220B134961",
      "stop_code": 134961,
      "stop_name": "Dublin Busáras",
      "stop_desc": "",
      "stop_lat": 53.3499127208186,
      "stop_lon": -6.25238682003711,
      "zone_id": "",
      "stop_url": "",
      "location_type": "",
      "parent_station": ""
    },
    {
      "stop_id": "8220B135001",
      "stop_code": 135001,
      "stop_name": "Dublin Busáras",
      "stop_desc": "",
      "stop_lat": 53.3495717825709,
      "stop_lon": -6.25181494321315,
      "zone_id": "",
      "stop_url": "",
      "location_type": "",
      "parent_station": ""
    },
    {
      "stop_id": "8220B1350201",
      "stop_code": 135021,
      "stop_name": "DCU",
      "stop_desc": "",
      "stop_lat": 53.386888884633,
      "stop_lon": -6.25663057318752,
      "zone_id": "",
      "stop_url": "",
      "location_type": "",
      "parent_station": ""
    },
    {
      "stop_id": "8220B1350301",
      "stop_code": 135031,
      "stop_name": "Beresford Place",
      "stop_desc": "",
      "stop_lat": 53.3487549295197,
      "stop_lon": -6.25495768638166,
      "zone_id": "",
      "stop_url": "",
      "location_type": "",
      "parent_station": ""
    },
    {
      "stop_id": "8220B1351001",
      "stop_code": 135101,
      "stop_name": "Wellington Quay",
      "stop_desc": "",
      "stop_lat": 53.3458641751298,
      "stop_lon": -6.26381729294171,
      "zone_id": "",
      "stop_url": "",
      "location_type": "",
      "parent_station": ""
    },
    {
      "stop_id": "8220B1351201",
      "stop_code": 135121,
      "stop_name": "Connolly Station",
      "stop_desc": "",
      "stop_lat": 53.3502180212919,
      "stop_lon": -6.25052670165242,
      "zone_id": "",
      "stop_url": "",
      "location_type": "",
      "parent_station": ""
    },
    {
      "stop_id": "8220B1351401",
      "stop_code": 135141,
      "stop_name": "George's Quay",
      "stop_desc": "",
      "stop_lat": 53.347377,
      "stop_lon": -6.252222,
      "zone_id": "",
      "stop_url": "",
      "location_type": "",
      "parent_station": ""
    },
    {
      "stop_id": "8220B1352701",
      "stop_code": 135271,
      "stop_name": "Custom House Quay",
      "stop_desc": "",
      "stop_lat": 53.348359,
      "stop_lon": -6.253712,
      "zone_id": "",
      "stop_url": "",
      "location_type": "",
      "parent_station": ""
    },
    {
      "stop_id": "8220B1353101",
      "stop_code": 135311,
      "stop_name": "Wilton Terrace",
      "stop_desc": "",
      "stop_lat": 53.333451,
      "stop_lon": -6.249021,
      "zone_id": "",
      "stop_url": "",
      "location_type": "",
      "parent_station": ""
    },
    {
      "stop_id": "8220B1353301",
      "stop_code": 135331,
      "stop_name": "Dawson Street",
      "stop_desc": "",
      "stop_lat": 53.340134371715,
      "stop_lon": -6.25858361137312,
      "zone_id": "",
      "stop_url": "",
      "location_type": "",
      "parent_station": ""
    },
    {
      "stop_id": "8220B1353501",
      "stop_code": 135351,
      "stop_name": "Eden Quay",
      "stop_desc": "",
      "stop_lat": 53.3477999659065,
      "stop_lon": -6.25849647173381,
      "zone_id": "",
      "stop_url": "",
      "location_type": "",
      "parent_station": ""
    },
    {
      "stop_id": "8220B1354001",
      "stop_code": 135401,
      "stop_name": "Heuston Station",
      "stop_desc": "",
      "stop_lat": 53.346033,
      "stop_lon": -6.292647,
      "zone_id": "",
      "stop_url": "",
      "location_type": "",
      "parent_station": ""
    },
    {
      "stop_id": "8220B135411",
      "stop_code": 135411,
      "stop_name": "Wilton Terrace",
      "stop_desc": "",
      "stop_lat": 53.333421,
      "stop_lon": -6.249085,
      "zone_id": "",
      "stop_url": "",
      "location_type": "",
      "parent_station": ""
    },
    {
      "stop_id": "8220B1354201",
      "stop_code": 135421,
      "stop_name": "Heuston Station",
      "stop_desc": "",
      "stop_lat": 53.346197,
      "stop_lon": -6.292462,
      "zone_id": "",
      "stop_url": "",
      "location_type": "",
      "parent_station": ""
    },
    {
      "stop_id": "8220B211521",
      "stop_code": 211521,
      "stop_name": "Merrion Square West",
      "stop_desc": "",
      "stop_lat": 53.3409101463996,
      "stop_lon": -6.25078764576979,
      "zone_id": "",
      "stop_url": "",
      "location_type": "",
      "parent_station": ""
    },
    {
      "stop_id": "8220B3551501",
      "stop_code": 355151,
      "stop_name": "Vincent's Hospital",
      "stop_desc": "",
      "stop_lat": 53.3173579970596,
      "stop_lon": -6.21598254819272,
      "zone_id": "",
      "stop_url": "",
      "location_type": "",
      "parent_station": ""
    },
    {
      "stop_id": "8220DB000002",
      "stop_code": 2,
      "stop_name": "Parnell Square West",
      "stop_desc": "",
      "stop_lat": 53.3522443611383,
      "stop_lon": -6.26372321891887,
      "zone_id": "",
      "stop_url": "",
      "location_type": "",
      "parent_station": ""
    },
    {
      "stop_id": "8220DB000003",
      "stop_code": 3,
      "stop_name": "Parnell Square West",
      "stop_desc": "",
      "stop_lat": 53.3523085514325,
      "stop_lon": -6.26381074216825,
      "zone_id": "",
      "stop_url": "",
      "location_type": "",
      "parent_station": ""
    },
    {
      "stop_id": "8220DB000004",
      "stop_code": 4,
      "stop_name": "Parnell Square West",
      "stop_desc": "",
      "stop_lat": 53.352574513185,
      "stop_lon": -6.26417548603797,
      "zone_id": "",
      "stop_url": "",
      "location_type": "",
      "parent_station": ""
    },
    {
      "stop_id": "8220DB000005",
      "stop_code": 5,
      "stop_name": "Parnell Square West",
      "stop_desc": "",
      "stop_lat": 53.3525736395204,
      "stop_lon": -6.26411543286632,
      "zone_id": "",
      "stop_url": "",
      "location_type": "",
      "parent_station": ""
    },
    {
      "stop_id": "8220DB000007",
      "stop_code": 7,
      "stop_name": "Parnell Square West",
      "stop_desc": "",
      "stop_lat": 53.3528409105784,
      "stop_lon": -6.26457026121749,
      "zone_id": "",
      "stop_url": "",
      "location_type": "",
      "parent_station": ""
    },
    {
      "stop_id": "8220DB000008",
      "stop_code": 8,
      "stop_name": "Parnell Square West",
      "stop_desc": "",
      "stop_lat": 53.3532722714822,
      "stop_lon": -6.265183676574,
      "zone_id": "",
      "stop_url": "",
      "location_type": "",
      "parent_station": ""
    },
    {
      "stop_id": "8220DB000010",
      "stop_code": 10,
      "stop_name": "Parnell Square West",
      "stop_desc": "",
      "stop_lat": 53.3533921036473,
      "stop_lon": -6.26538912389954,
      "zone_id": "",
      "stop_url": "",
      "location_type": "",
      "parent_station": ""
    },
    {
      "stop_id": "8220DB000011",
      "stop_code": 11,
      "stop_name": "St Joseph's Parade",
      "stop_desc": "",
      "stop_lat": 53.3568152335295,
      "stop_lon": -6.26467919507526,
      "zone_id": "",
      "stop_url": "",
      "location_type": "",
      "parent_station": ""
    },
    {
      "stop_id": "8220DB000012",
      "stop_code": 12,
      "stop_name": "Upper Dorset Street",
      "stop_desc": "",
      "stop_lat": 53.3571075162022,
      "stop_lon": -6.2643818673353,
      "zone_id": "",
      "stop_url": "",
      "location_type": "",
      "parent_station": ""
    },
    {
      "stop_id": "8220DB000014",
      "stop_code": 14,
      "stop_name": "Dorset Street Lower",
      "stop_desc": "",
      "stop_lat": 53.3585312378758,
      "stop_lon": -6.2627765057087,
      "zone_id": "",
      "stop_url": "",
      "location_type": "",
      "parent_station": ""
    },
    {
      "stop_id": "8220DB000015",
      "stop_code": 15,
      "stop_name": "Innisfallen Parade",
      "stop_desc": "",
      "stop_lat": 53.360267,
      "stop_lon": -6.260978,
      "zone_id": "",
      "stop_url": "",
      "location_type": "",
      "parent_station": ""
    },
    {
      "stop_id": "8220DB000016",
      "stop_code": 16,
      "stop_name": "Nephin Road Park",
      "stop_desc": "",
      "stop_lat": 53.3663915571411,
      "stop_lon": -6.30561418352737,
      "zone_id": "",
      "stop_url": "",
      "location_type": "",
      "parent_station": ""
    },
    {
      "stop_id": "8220DB000017",
      "stop_code": 17,
      "stop_name": "Drumcondra Rail Station",
      "stop_desc": "",
      "stop_lat": 53.3630783243779,
      "stop_lon": -6.25839928847834,
      "zone_id": "",
      "stop_url": "",
      "location_type": "",
      "parent_station": ""
    },
    {
      "stop_id": "8220DB000018",
      "stop_code": 18,
      "stop_name": "Dargle Road",
      "stop_desc": "",
      "stop_lat": 53.3658559259166,
      "stop_lon": -6.25595682067835,
      "zone_id": "",
      "stop_url": "",
      "location_type": "",
      "parent_station": ""
    },
    {
      "stop_id": "8220DB000019",
      "stop_code": 19,
      "stop_name": "Botanic Avenue",
      "stop_desc": "",
      "stop_lat": 53.3672348759324,
      "stop_lon": -6.25559994097702,
      "zone_id": "",
      "stop_url": "",
      "location_type": "",
      "parent_station": ""
    },
    {
      "stop_id": "8220DB000021",
      "stop_code": 21,
      "stop_name": "DCU St Patrick's",
      "stop_desc": "",
      "stop_lat": 53.3701011992947,
      "stop_lon": -6.25431059904442,
      "zone_id": "",
      "stop_url": "",
      "location_type": "",
      "parent_station": ""
    },
    {
      "stop_id": "8220DB000022",
      "stop_code": 22,
      "stop_name": "Home Farm Road",
      "stop_desc": "",
      "stop_lat": 53.3735036097406,
      "stop_lon": -6.25280375269006,
      "zone_id": "",
      "stop_url": "",
      "location_type": "",
      "parent_station": ""
    },
    {
      "stop_id": "8220DB000023",
      "stop_code": 23,
      "stop_name": "Ferguson Road",
      "stop_desc": "",
      "stop_lat": 53.3742282800791,
      "stop_lon": -6.256261004167,
      "zone_id": "",
      "stop_url": "",
      "location_type": "",
      "parent_station": ""
    },
    {
      "stop_id": "8220DB000024",
      "stop_code": 24,
      "stop_name": "Walsh Road",
      "stop_desc": "",
      "stop_lat": 53.3751331588841,
      "stop_lon": -6.26037234812319,
      "zone_id": "",
      "stop_url": "",
      "location_type": "",
      "parent_station": ""
    },
    {
      "stop_id": "8220DB000025",
      "stop_code": 25,
      "stop_name": "Rathlin Road",
      "stop_desc": "",
      "stop_lat": 53.3758994661474,
      "stop_lon": -6.26361773641709,
      "zone_id": "",
      "stop_url": "",
      "location_type": "",
      "parent_station": ""
    },
    {
      "stop_id": "8220DB000027",
      "stop_code": 27,
      "stop_name": "Ballymun Road",
      "stop_desc": "",
      "stop_lat": 53.3794389600107,
      "stop_lon": -6.26658526126003,
      "zone_id": "",
      "stop_url": "",
      "location_type": "",
      "parent_station": ""
    },
    {
      "stop_id": "8220DB000028",
      "stop_code": 28,
      "stop_name": "Hampstead Avenue",
      "stop_desc": "",
      "stop_lat": 53.381578637628,
      "stop_lon": -6.26600227077738,
      "zone_id": "",
      "stop_url": "",
      "location_type": "",
      "parent_station": ""
    },
    {
      "stop_id": "8220DB000029",
      "stop_code": 29,
      "stop_name": "Albert College Park",
      "stop_desc": "",
      "stop_lat": 53.3834882529457,
      "stop_lon": -6.26566910125417,
      "zone_id": "",
      "stop_url": "",
      "location_type": "",
      "parent_station": ""
    },
    {
      "stop_id": "8220DB000030",
      "stop_code": 30,
      "stop_name": "Ventry Park",
      "stop_desc": "",
      "stop_lat": 53.370331900193,
      "stop_lon": -6.30460116922913,
      "zone_id": "",
      "stop_url": "",
      "location_type": "",
      "parent_station": ""
    },
    {
      "stop_id": "8220DB000031",
      "stop_code": 31,
      "stop_name": "St Pappin's Road",
      "stop_desc": "",
      "stop_lat": 53.3860332259144,
      "stop_lon": -6.268858077275,
      "zone_id": "",
      "stop_url": "",
      "location_type": "",
      "parent_station": ""
    },
    {
      "stop_id": "8220DB000032",
      "stop_code": 32,
      "stop_name": "Stormanstown Road",
      "stop_desc": "",
      "stop_lat": 53.3861955680738,
      "stop_lon": -6.2713772010414,
      "zone_id": "",
      "stop_url": "",
      "location_type": "",
      "parent_station": ""
    },
    {
      "stop_id": "8220DB000033",
      "stop_code": 33,
      "stop_name": "Glasnevin Drive",
      "stop_desc": "",
      "stop_lat": 53.3887179243058,
      "stop_lon": -6.27177114122451,
      "zone_id": "",
      "stop_url": "",
      "location_type": "",
      "parent_station": ""
    },
    {
      "stop_id": "8220DB000035",
      "stop_code": 35,
      "stop_name": "Dean Swift Road",
      "stop_desc": "",
      "stop_lat": 53.3862067871013,
      "stop_lon": -6.270910692541,
      "zone_id": "",
      "stop_url": "",
      "location_type": "",
      "parent_station": ""
    },
    {
      "stop_id": "8220DB000036",
      "stop_code": 36,
      "stop_name": "Maolbuille Road",
      "stop_desc": "",
      "stop_lat": 53.386126850411,
      "stop_lon": -6.26787706978339,
      "zone_id": "",
      "stop_url": "",
      "location_type": "",
      "parent_station": ""
    },
    {
      "stop_id": "8220DB000037",
      "stop_code": 37,
      "stop_name": "DCU Ballymun Road",
      "stop_desc": "",
      "stop_lat": 53.385346401194,
      "stop_lon": -6.26488698131794,
      "zone_id": "",
      "stop_url": "",
      "location_type": "",
      "parent_station": ""
    },
    {
      "stop_id": "8220DB000038",
      "stop_code": 38,
      "stop_name": "Hampstead Avenue",
      "stop_desc": "",
      "stop_lat": 53.3822365941636,
      "stop_lon": -6.26550952120506,
      "zone_id": "",
      "stop_url": "",
      "location_type": "",
      "parent_station": ""
    },
    {
      "stop_id": "8220DB000039",
      "stop_code": 39,
      "stop_name": "The Rise",
      "stop_desc": "",
      "stop_lat": 53.3804141869323,
      "stop_lon": -6.26565875906589,
      "zone_id": "",
      "stop_url": "",
      "location_type": "",
      "parent_station": ""
    },
    {
      "stop_id": "8220DB000040",
      "stop_code": 40,
      "stop_name": "Stella Avenue",
      "stop_desc": "",
      "stop_lat": 53.3766607654507,
      "stop_lon": -6.26466896852794,
      "zone_id": "",
      "stop_url": "",
      "location_type": "",
      "parent_station": ""
    },
    {
      "stop_id": "8220DB000041",
      "stop_code": 41,
      "stop_name": "Home Farm Road",
      "stop_desc": "",
      "stop_lat": 53.3755592683258,
      "stop_lon": -6.26185800624669,
      "zone_id": "",
      "stop_url": "",
      "location_type": "",
      "parent_station": ""
    },
    {
      "stop_id": "8220DB000042",
      "stop_code": 42,
      "stop_name": "Corpus Christi NS",
      "stop_desc": "",
      "stop_lat": 53.3746502734575,
      "stop_lon": -6.25746118972134,
      "zone_id": "",
      "stop_url": "",
      "location_type": "",
      "parent_station": ""
    },
    {
      "stop_id": "8220DB000043",
      "stop_code": 43,
      "stop_name": "Achill Road",
      "stop_desc": "",
      "stop_lat": 53.3738612202267,
      "stop_lon": -6.25390131043392,
      "zone_id": "",
      "stop_url": "",
      "location_type": "",
      "parent_station": ""
    },
    {
      "stop_id": "8220DB000044",
      "stop_code": 44,
      "stop_name": "Skylon Hotel",
      "stop_desc": "",
      "stop_lat": 53.3730174091204,
      "stop_lon": -6.25213230324296,
      "zone_id": "",
      "stop_url": "",
      "location_type": "",
      "parent_station": ""
    },
    {
      "stop_id": "8220DB000045",
      "stop_code": 45,
      "stop_name": "DCU St Patrick's",
      "stop_desc": "",
      "stop_lat": 53.3699364344006,
      "stop_lon": -6.25410694084966,
      "zone_id": "",
      "stop_url": "",
      "location_type": "",
      "parent_station": ""
    },
    {
      "stop_id": "8220DB000046",
      "stop_code": 46,
      "stop_name": "Botanic Avenue",
      "stop_desc": "",
      "stop_lat": 53.367131016215,
      "stop_lon": -6.25525855655013,
      "zone_id": "",
      "stop_url": "",
      "location_type": "",
      "parent_station": ""
    },
    {
      "stop_id": "8220DB000047",
      "stop_code": 47,
      "stop_name": "Drumcondra Rail Station",
      "stop_desc": "",
      "stop_lat": 53.3639161189927,
      "stop_lon": -6.25729825652802,
      "zone_id": "",
      "stop_url": "",
      "location_type": "",
      "parent_station": ""
    },
    {
      "stop_id": "8220DB000048",
      "stop_code": 48,
      "stop_name": "Fitzroy Avenue",
      "stop_desc": "",
      "stop_lat": 53.3622573901228,
      "stop_lon": -6.25880841233317,
      "zone_id": "",
      "stop_url": "",
      "location_type": "",
      "parent_station": ""
    },
    {
      "stop_id": "8220DB000049",
      "stop_code": 49,
      "stop_name": "Dorset Street Lower",
      "stop_desc": "",
      "stop_lat": 53.3600042378879,
      "stop_lon": -6.26085350834054,
      "zone_id": "",
      "stop_url": "",
      "location_type": "",
      "parent_station": ""
    },
    {
      "stop_id": "8220DB000051",
      "stop_code": 51,
      "stop_name": "Temple Street",
      "stop_desc": "",
      "stop_lat": 53.3578104088094,
      "stop_lon": -6.26327157246552,
      "zone_id": "",
      "stop_url": "",
      "location_type": "",
      "parent_station": ""
    },
    {
      "stop_id": "8220DB000052",
      "stop_code": 52,
      "stop_name": "Dorset Street Upper",
      "stop_desc": "",
      "stop_lat": 53.3566607792349,
      "stop_lon": -6.26456528204098,
      "zone_id": "",
      "stop_url": "",
      "location_type": "",
      "parent_station": ""
    },
    {
      "stop_id": "8220DB000053",
      "stop_code": 53,
      "stop_name": "North Circular Road",
      "stop_desc": "",
      "stop_lat": 53.3600144884223,
      "stop_lon": -6.26279128910752,
      "zone_id": "",
      "stop_url": "",
      "location_type": "",
      "parent_station": ""
    },
    {
      "stop_id": "8220DB000054",
      "stop_code": 54,
      "stop_name": "Mater Hospital",
      "stop_desc": "",
      "stop_lat": 53.3602216080548,
      "stop_lon": -6.26590803396309,
      "zone_id": "",
      "stop_url": "",
      "location_type": "",
      "parent_station": ""
    },
    {
      "stop_id": "8220DB000055",
      "stop_code": 55,
      "stop_name": "Mountjoy",
      "stop_desc": "",
      "stop_lat": 53.3604116029234,
      "stop_lon": -6.26846957982236,
      "zone_id": "",
      "stop_url": "",
      "location_type": "",
      "parent_station": ""
    },
    {
      "stop_id": "8220DB000056",
      "stop_code": 56,
      "stop_name": "Dalymount",
      "stop_desc": "",
      "stop_lat": 53.3607597246041,
      "stop_lon": -6.2763736549141,
      "zone_id": "",
      "stop_url": "",
      "location_type": "",
      "parent_station": ""
    },
    {
      "stop_id": "8220DB000057",
      "stop_code": 57,
      "stop_name": "Dalymount",
      "stop_desc": "",
      "stop_lat": 53.3608162242918,
      "stop_lon": -6.27655167484331,
      "zone_id": "",
      "stop_url": "",
      "location_type": "",
      "parent_station": ""
    },
    {
      "stop_id": "8220DB000058",
      "stop_code": 58,
      "stop_name": "Churchview Home",
      "stop_desc": "",
      "stop_lat": 53.3609462458913,
      "stop_lon": -6.28120420246722,
      "zone_id": "",
      "stop_url": "",
      "location_type": "",
      "parent_station": ""
    },
    {
      "stop_id": "8220DB000059",
      "stop_code": 59,
      "stop_name": "Annamoe Terrace",
      "stop_desc": "",
      "stop_lat": 53.3610180101964,
      "stop_lon": -6.28494256312827,
      "zone_id": "",
      "stop_url": "",
      "location_type": "",
      "parent_station": ""
    },
    {
      "stop_id": "8220DB000060",
      "stop_code": 60,
      "stop_name": "Quarry Road",
      "stop_desc": "",
      "stop_lat": 53.3612792196482,
      "stop_lon": -6.28936450005445,
      "zone_id": "",
      "stop_url": "",
      "location_type": "",
      "parent_station": ""
    },
    {
      "stop_id": "8220DB000063",
      "stop_code": 63,
      "stop_name": "Faussaugh Avenue",
      "stop_desc": "",
      "stop_lat": 53.366792437293,
      "stop_lon": -6.29275010805854,
      "zone_id": "",
      "stop_url": "",
      "location_type": "",
      "parent_station": ""
    },
    {
      "stop_id": "8220DB000064",
      "stop_code": 64,
      "stop_name": "Faussaugh Avenue Church",
      "stop_desc": "",
      "stop_lat": 53.3670885820667,
      "stop_lon": -6.29523278220336,
      "zone_id": "",
      "stop_url": "",
      "location_type": "",
      "parent_station": ""
    },
    {
      "stop_id": "8220DB000065",
      "stop_code": 65,
      "stop_name": "Dingle Road",
      "stop_desc": "",
      "stop_lat": 53.3672546442386,
      "stop_lon": -6.29805127641299,
      "zone_id": "",
      "stop_url": "",
      "location_type": "",
      "parent_station": ""
    },
    {
      "stop_id": "8220DB000066",
      "stop_code": 66,
      "stop_name": "Broombridge Road",
      "stop_desc": "",
      "stop_lat": 53.367275,
      "stop_lon": -6.30074,
      "zone_id": "",
      "stop_url": "",
      "location_type": "",
      "parent_station": ""
    },
    {
      "stop_id": "8220DB000068",
      "stop_code": 68,
      "stop_name": "Ventry Drive",
      "stop_desc": "",
      "stop_lat": 53.369077508046,
      "stop_lon": -6.30424523466641,
      "zone_id": "",
      "stop_url": "",
      "location_type": "",
      "parent_station": ""
    },
    {
      "stop_id": "8220DB000069",
      "stop_code": 69,
      "stop_name": "Carnlough Road",
      "stop_desc": "",
      "stop_lat": 53.3713925640935,
      "stop_lon": -6.30334171689525,
      "zone_id": "",
      "stop_url": "",
      "location_type": "",
      "parent_station": ""
    },
    {
      "stop_id": "8220DB000071",
      "stop_code": 71,
      "stop_name": "Ventry Park",
      "stop_desc": "",
      "stop_lat": 53.3702576893289,
      "stop_lon": -6.30443880530351,
      "zone_id": "",
      "stop_url": "",
      "location_type": "",
      "parent_station": ""
    },
    {
      "stop_id": "8220DB000072",
      "stop_code": 72,
      "stop_name": "Ventry Drive",
      "stop_desc": "",
      "stop_lat": 53.368969926025,
      "stop_lon": -6.30426453600163,
      "zone_id": "",
      "stop_url": "",
      "location_type": "",
      "parent_station": ""
    },
    {
      "stop_id": "8220DB000073",
      "stop_code": 73,
      "stop_name": "Faussagh Avenue",
      "stop_desc": "",
      "stop_lat": 53.3673915527258,
      "stop_lon": -6.3007206786557,
      "zone_id": "",
      "stop_url": "",
      "location_type": "",
      "parent_station": ""
    },
    {
      "stop_id": "8220DB000074",
      "stop_code": 74,
      "stop_name": "Faussaugh Avenue Church",
      "stop_desc": "",
      "stop_lat": 53.3672002385634,
      "stop_lon": -6.29549881400778,
      "zone_id": "",
      "stop_url": "",
      "location_type": "",
      "parent_station": ""
    },
    {
      "stop_id": "8220DB000075",
      "stop_code": 75,
      "stop_name": "Fionnbarra GAA",
      "stop_desc": "",
      "stop_lat": 53.3665472298946,
      "stop_lon": -6.29131731936794,
      "zone_id": "",
      "stop_url": "",
      "location_type": "",
      "parent_station": ""
    },
    {
      "stop_id": "8220DB000077",
      "stop_code": 77,
      "stop_name": "Quarry Road",
      "stop_desc": "",
      "stop_lat": 53.3613091819025,
      "stop_lon": -6.28957365234688,
      "zone_id": "",
      "stop_url": "",
      "location_type": "",
      "parent_station": ""
    },
    {
      "stop_id": "8220DB000078",
      "stop_code": 78,
      "stop_name": "Annamoe Terrace",
      "stop_desc": "",
      "stop_lat": 53.3611492151906,
      "stop_lon": -6.28406583527474,
      "zone_id": "",
      "stop_url": "",
      "location_type": "",
      "parent_station": ""
    },
    {
      "stop_id": "8220DB000079",
      "stop_code": 79,
      "stop_name": "Churchview Home",
      "stop_desc": "",
      "stop_lat": 53.3610212509762,
      "stop_lon": -6.28079550562152,
      "zone_id": "",
      "stop_url": "",
      "location_type": "",
      "parent_station": ""
    },
    {
      "stop_id": "8220DB000080",
      "stop_code": 80,
      "stop_name": "Phibsborough PO",
      "stop_desc": "",
      "stop_lat": 53.360862963273,
      "stop_lon": -6.27605396152962,
      "zone_id": "",
      "stop_url": "",
      "location_type": "",
      "parent_station": ""
    },
    {
      "stop_id": "8220DB000081",
      "stop_code": 81,
      "stop_name": "Phibsborough",
      "stop_desc": "",
      "stop_lat": 53.3608757479059,
      "stop_lon": -6.27196662691607,
      "zone_id": "",
      "stop_url": "",
      "location_type": "",
      "parent_station": ""
    },
    {
      "stop_id": "8220DB000082",
      "stop_code": 82,
      "stop_name": "Phibsborough",
      "stop_desc": "",
      "stop_lat": 53.3607977959156,
      "stop_lon": -6.27154908016382,
      "zone_id": "",
      "stop_url": "",
      "location_type": "",
      "parent_station": ""
    },
    {
      "stop_id": "8220DB000083",
      "stop_code": 83,
      "stop_name": "Mater Hospital",
      "stop_desc": "",
      "stop_lat": 53.3602792498223,
      "stop_lon": -6.26554509616275,
      "zone_id": "",
      "stop_url": "",
      "location_type": "",
      "parent_station": ""
    },
    {
      "stop_id": "8220DB000084",
      "stop_code": 84,
      "stop_name": "Leo Street",
      "stop_desc": "",
      "stop_lat": 53.3601625615962,
      "stop_lon": -6.26370178059102,
      "zone_id": "",
      "stop_url": "",
      "location_type": "",
      "parent_station": ""
    },
    {
      "stop_id": "8220DB000085",
      "stop_code": 85,
      "stop_name": "Wellpark Avenue",
      "stop_desc": "",
      "stop_lat": 53.3739579526136,
      "stop_lon": -6.2519134296642,
      "zone_id": "",
      "stop_url": "",
      "location_type": "",
      "parent_station": ""
    },
    {
      "stop_id": "8220DB000087",
      "stop_code": 87,
      "stop_name": "Clare Road",
      "stop_desc": "",
      "stop_lat": 53.3767517255719,
      "stop_lon": -6.2548802899246,
      "zone_id": "",
      "stop_url": "",
      "location_type": "",
      "parent_station": ""
    },
    {
      "stop_id": "8220DB000088",
      "stop_code": 88,
      "stop_name": "Walnut Rise",
      "stop_desc": "",
      "stop_lat": 53.3772872552991,
      "stop_lon": -6.2576992286456,
      "zone_id": "",
      "stop_url": "",
      "location_type": "",
      "parent_station": ""
    },
    {
      "stop_id": "8220DB000090",
      "stop_code": 90,
      "stop_name": "Albert College Court",
      "stop_desc": "",
      "stop_lat": 53.3863855316738,
      "stop_lon": -6.26526567275522,
      "zone_id": "",
      "stop_url": "",
      "location_type": "",
      "parent_station": ""
    },
    {
      "stop_id": "8220DB000091",
      "stop_code": 91,
      "stop_name": "Ballymun Road NS",
      "stop_desc": "",
      "stop_lat": 53.3884278896483,
      "stop_lon": -6.26540814207682,
      "zone_id": "",
      "stop_url": "",
      "location_type": "",
      "parent_station": ""
    },
    {
      "stop_id": "8220DB000092",
      "stop_code": 92,
      "stop_name": "Ballymun Library",
      "stop_desc": "",
      "stop_lat": 53.3898373340512,
      "stop_lon": -6.26467424036105,
      "zone_id": "",
      "stop_url": "",
      "location_type": "",
      "parent_station": ""
    },
    {
      "stop_id": "8220DB000093",
      "stop_code": 93,
      "stop_name": "Gateway Avenue",
      "stop_desc": "",
      "stop_lat": 53.3923014677497,
      "stop_lon": -6.26415297561013,
      "zone_id": "",
      "stop_url": "",
      "location_type": "",
      "parent_station": ""
    },
    {
      "stop_id": "8220DB000094",
      "stop_code": 94,
      "stop_name": "Civic Centre",
      "stop_desc": "",
      "stop_lat": 53.3960347624115,
      "stop_lon": -6.26437695995448,
      "zone_id": "",
      "stop_url": "",
      "location_type": "",
      "parent_station": ""
    },
    {
      "stop_id": "8220DB000102",
      "stop_code": 102,
      "stop_name": "Balbutcher Lane",
      "stop_desc": "",
      "stop_lat": 53.397773070166,
      "stop_lon": -6.26771985697013,
      "zone_id": "",
      "stop_url": "",
      "location_type": "",
      "parent_station": ""
    },
    {
      "stop_id": "8220DB000104",
      "stop_code": 104,
      "stop_name": "Poppintree Parade",
      "stop_desc": "",
      "stop_lat": 53.3997562075174,
      "stop_lon": -6.27681294502528,
      "zone_id": "",
      "stop_url": "",
      "location_type": "",
      "parent_station": ""
    },
    {
      "stop_id": "8220DB000105",
      "stop_code": 105,
      "stop_name": "Belclare Park",
      "stop_desc": "",
      "stop_lat": 53.4029363966818,
      "stop_lon": -6.28169269646949,
      "zone_id": "",
      "stop_url": "",
      "location_type": "",
      "parent_station": ""
    },
    {
      "stop_id": "8220DB000107",
      "stop_code": 107,
      "stop_name": "Crannogue Road",
      "stop_desc": "",
      "stop_lat": 53.4023798987989,
      "stop_lon": -6.28049690990612,
      "zone_id": "",
      "stop_url": "",
      "location_type": "",
      "parent_station": ""
    },
    {
      "stop_id": "8220DB000110",
      "stop_code": 110,
      "stop_name": "Ard na Meala",
      "stop_desc": "",
      "stop_lat": 53.3979386409613,
      "stop_lon": -6.26860038147331,
      "zone_id": "",
      "stop_url": "",
      "location_type": "",
      "parent_station": ""
    },
    {
      "stop_id": "8220DB000112",
      "stop_code": 112,
      "stop_name": "Civic Centre",
      "stop_desc": "",
      "stop_lat": 53.3961544015462,
      "stop_lon": -6.2639510403018,
      "zone_id": "",
      "stop_url": "",
      "location_type": "",
      "parent_station": ""
    },
    {
      "stop_id": "8220DB000113",
      "stop_code": 113,
      "stop_name": "Trinity Comp School",
      "stop_desc": "",
      "stop_lat": 53.3922679629262,
      "stop_lon": -6.26370325464247,
      "zone_id": "",
      "stop_url": "",
      "location_type": "",
      "parent_station": ""
    },
    {
      "stop_id": "8220DB000114",
      "stop_code": 114,
      "stop_name": "Ballymun Road",
      "stop_desc": "",
      "stop_lat": 53.3913333220544,
      "stop_lon": -6.26371122925237,
      "zone_id": "",
      "stop_url": "",
      "location_type": "",
      "parent_station": ""
    },
    {
      "stop_id": "8220DB000115",
      "stop_code": 115,
      "stop_name": "Ballymun Road Church",
      "stop_desc": "",
      "stop_lat": 53.3879640919871,
      "stop_lon": -6.26503610048148,
      "zone_id": "",
      "stop_url": "",
      "location_type": "",
      "parent_station": ""
    },
    {
      "stop_id": "8220DB000116",
      "stop_code": 116,
      "stop_name": "Griffith Lawns",
      "stop_desc": "",
      "stop_lat": 53.3776934606436,
      "stop_lon": -6.25966673989336,
      "zone_id": "",
      "stop_url": "",
      "location_type": "",
      "parent_station": ""
    },
    {
      "stop_id": "8220DB000117",
      "stop_code": 117,
      "stop_name": "Walnut Rise",
      "stop_desc": "",
      "stop_lat": 53.3773659067251,
      "stop_lon": -6.25754570845526,
      "zone_id": "",
      "stop_url": "",
      "location_type": "",
      "parent_station": ""
    },
    {
      "stop_id": "8220DB000118",
      "stop_code": 118,
      "stop_name": "Clare Road",
      "stop_desc": "",
      "stop_lat": 53.3766430016908,
      "stop_lon": -6.25359209857681,
      "zone_id": "",
      "stop_url": "",
      "location_type": "",
      "parent_station": ""
    },
    {
      "stop_id": "8220DB000119",
      "stop_code": 119,
      "stop_name": "The Village",
      "stop_desc": "",
      "stop_lat": 53.3751904807235,
      "stop_lon": -6.25076574528234,
      "zone_id": "",
      "stop_url": "",
      "location_type": "",
      "parent_station": ""
    },
    {
      "stop_id": "8220DB000126",
      "stop_code": 126,
      "stop_name": "Nursing Home",
      "stop_desc": "",
      "stop_lat": 53.3990954666854,
      "stop_lon": -6.26408696056045,
      "zone_id": "",
      "stop_url": "",
      "location_type": "",
      "parent_station": ""
    },
    {
      "stop_id": "8220DB000127",
      "stop_code": 127,
      "stop_name": "Nursing Home",
      "stop_desc": "",
      "stop_lat": 53.3991075304805,
      "stop_lon": -6.26368042823971,
      "zone_id": "",
      "stop_url": "",
      "location_type": "",
      "parent_station": ""
    },
    {
      "stop_id": "8220DB000128",
      "stop_code": 128,
      "stop_name": "Glasnevin Avenue",
      "stop_desc": "",
      "stop_lat": 53.3892678697418,
      "stop_lon": -6.26568972261117,
      "zone_id": "",
      "stop_url": "",
      "location_type": "",
      "parent_station": ""
    },
    {
      "stop_id": "8220DB000129",
      "stop_code": 129,
      "stop_name": "Glasnevin Drive",
      "stop_desc": "",
      "stop_lat": 53.3898903154474,
      "stop_lon": -6.27142293606878,
      "zone_id": "",
      "stop_url": "",
      "location_type": "",
      "parent_station": ""
    },
    {
      "stop_id": "8220DB000130",
      "stop_code": 130,
      "stop_name": "Glasnevin Park",
      "stop_desc": "",
      "stop_lat": 53.3900920127596,
      "stop_lon": -6.27418126942505,
      "zone_id": "",
      "stop_url": "",
      "location_type": "",
      "parent_station": ""
    },
    {
      "stop_id": "8220DB000131",
      "stop_code": 131,
      "stop_name": "Willow Park Road",
      "stop_desc": "",
      "stop_lat": 53.3903858902624,
      "stop_lon": -6.27834923697209,
      "zone_id": "",
      "stop_url": "",
      "location_type": "",
      "parent_station": ""
    },
    {
      "stop_id": "8220DB000132",
      "stop_code": 132,
      "stop_name": "Beneavin Park",
      "stop_desc": "",
      "stop_lat": 53.3905207424932,
      "stop_lon": -6.2827191236982,
      "zone_id": "",
      "stop_url": "",
      "location_type": "",
      "parent_station": ""
    },
    {
      "stop_id": "8220DB000133",
      "stop_code": 133,
      "stop_name": "Grove Park Road",
      "stop_desc": "",
      "stop_lat": 53.3907969275881,
      "stop_lon": -6.28630150947292,
      "zone_id": "",
      "stop_url": "",
      "location_type": "",
      "parent_station": ""
    },
    {
      "stop_id": "8220DB000134",
      "stop_code": 134,
      "stop_name": "Sycamore Road",
      "stop_desc": "",
      "stop_lat": 53.3930945913203,
      "stop_lon": -6.28607386543561,
      "zone_id": "",
      "stop_url": "",
      "location_type": "",
      "parent_station": ""
    },
    {
      "stop_id": "8220DB000136",
      "stop_code": 136,
      "stop_name": "McKee Road",
      "stop_desc": "",
      "stop_lat": 53.3943802013894,
      "stop_lon": -6.28985659650009,
      "zone_id": "",
      "stop_url": "",
      "location_type": "",
      "parent_station": ""
    },
    {
      "stop_id": "8220DB000137",
      "stop_code": 137,
      "stop_name": "Clancy Avenue",
      "stop_desc": "",
      "stop_lat": 53.3923167196303,
      "stop_lon": -6.29263079481432,
      "zone_id": "",
      "stop_url": "",
      "location_type": "",
      "parent_station": ""
    },
    {
      "stop_id": "8220DB000138",
      "stop_code": 138,
      "stop_name": "St Canice's BNS",
      "stop_desc": "",
      "stop_lat": 53.3899950092672,
      "stop_lon": -6.29180657264741,
      "zone_id": "",
      "stop_url": "",
      "location_type": "",
      "parent_station": ""
    },
    {
      "stop_id": "8220DB000139",
      "stop_code": 139,
      "stop_name": "Grove Park Road",
      "stop_desc": "",
      "stop_lat": 53.3906014624241,
      "stop_lon": -6.28645971748872,
      "zone_id": "",
      "stop_url": "",
      "location_type": "",
      "parent_station": ""
    },
    {
      "stop_id": "8220DB000140",
      "stop_code": 140,
      "stop_name": "Beneavin Park",
      "stop_desc": "",
      "stop_lat": 53.3906344923641,
      "stop_lon": -6.28250404674216,
      "zone_id": "",
      "stop_url": "",
      "location_type": "",
      "parent_station": ""
    },
    {
      "stop_id": "8220DB000141",
      "stop_code": 141,
      "stop_name": "Willow Park Road",
      "stop_desc": "",
      "stop_lat": 53.3904450850916,
      "stop_lon": -6.27809124468715,
      "zone_id": "",
      "stop_url": "",
      "location_type": "",
      "parent_station": ""
    },
    {
      "stop_id": "8220DB000142",
      "stop_code": 142,
      "stop_name": "Glasnevin Park",
      "stop_desc": "",
      "stop_lat": 53.3901982852621,
      "stop_lon": -6.27407172195534,
      "zone_id": "",
      "stop_url": "",
      "location_type": "",
      "parent_station": ""
    },
    {
      "stop_id": "8220DB000143",
      "stop_code": 143,
      "stop_name": "Willow Park Avenue",
      "stop_desc": "",
      "stop_lat": 53.389876708405,
      "stop_lon": -6.2692433699802,
      "zone_id": "",
      "stop_url": "",
      "location_type": "",
      "parent_station": ""
    },
    {
      "stop_id": "8220DB000146",
      "stop_code": 146,
      "stop_name": "Na Fianna GAA Club",
      "stop_desc": "",
      "stop_lat": 53.3750401276319,
      "stop_lon": -6.26509558567468,
      "zone_id": "",
      "stop_url": "",
      "location_type": "",
      "parent_station": ""
    },
    {
      "stop_id": "8220DB000147",
      "stop_code": 147,
      "stop_name": "Tolka Bridge",
      "stop_desc": "",
      "stop_lat": 53.37248,
      "stop_lon": -6.265831,
      "zone_id": "",
      "stop_url": "",
      "location_type": "",
      "parent_station": ""
    },
    {
      "stop_id": "8220DB000148",
      "stop_code": 148,
      "stop_name": "Mobhi Road",
      "stop_desc": "",
      "stop_lat": 53.3706701663468,
      "stop_lon": -6.26806850705825,
      "zone_id": "",
      "stop_url": "",
      "location_type": "",
      "parent_station": ""
    },
    {
      "stop_id": "8220DB000149",
      "stop_code": 149,
      "stop_name": "Tolka Bridge",
      "stop_desc": "",
      "stop_lat": 53.373139,
      "stop_lon": -6.265985,
      "zone_id": "",
      "stop_url": "",
      "location_type": "",
      "parent_station": ""
    },
    {
      "stop_id": "8220DB000150",
      "stop_code": 150,
      "stop_name": "Na Fianna GAA Club",
      "stop_desc": "",
      "stop_lat": 53.3756588461862,
      "stop_lon": -6.26499528302822,
      "zone_id": "",
      "stop_url": "",
      "location_type": "",
      "parent_station": ""
    },
    {
      "stop_id": "8220DB000151",
      "stop_code": 151,
      "stop_name": "Botanic Gardens",
      "stop_desc": "",
      "stop_lat": 53.3719552600192,
      "stop_lon": -6.26929382771155,
      "zone_id": "",
      "stop_url": "",
      "location_type": "",
      "parent_station": ""
    },
    {
      "stop_id": "8220DB000153",
      "stop_code": 153,
      "stop_name": "Met Eireann",
      "stop_desc": "",
      "stop_lat": 53.3756885056236,
      "stop_lon": -6.27013443946296,
      "zone_id": "",
      "stop_url": "",
      "location_type": "",
      "parent_station": ""
    },
    {
      "stop_id": "8220DB000154",
      "stop_code": 154,
      "stop_name": "St Brigid's School",
      "stop_desc": "",
      "stop_lat": 53.3772589962512,
      "stop_lon": -6.27555703718651,
      "zone_id": "",
      "stop_url": "",
      "location_type": "",
      "parent_station": ""
    },
    {
      "stop_id": "8220DB000155",
      "stop_code": 155,
      "stop_name": "Old Finglas Road",
      "stop_desc": "",
      "stop_lat": 53.3778742492869,
      "stop_lon": -6.27957552717572,
      "zone_id": "",
      "stop_url": "",
      "location_type": "",
      "parent_station": ""
    },
    {
      "stop_id": "8220DB000156",
      "stop_code": 156,
      "stop_name": "Tolka Estate",
      "stop_desc": "",
      "stop_lat": 53.378623390086,
      "stop_lon": -6.28166473909492,
      "zone_id": "",
      "stop_url": "",
      "location_type": "",
      "parent_station": ""
    },
    {
      "stop_id": "8220DB000157",
      "stop_code": 157,
      "stop_name": "Glasilawn Road",
      "stop_desc": "",
      "stop_lat": 53.3804116224166,
      "stop_lon": -6.28163782517765,
      "zone_id": "",
      "stop_url": "",
      "location_type": "",
      "parent_station": ""
    },
    {
      "stop_id": "8220DB000158",
      "stop_code": 158,
      "stop_name": "Griffith Road",
      "stop_desc": "",
      "stop_lat": 53.3814819498289,
      "stop_lon": -6.28356395405038,
      "zone_id": "",
      "stop_url": "",
      "location_type": "",
      "parent_station": ""
    },
    {
      "stop_id": "8220DB000159",
      "stop_code": 159,
      "stop_name": "Griffith Parade",
      "stop_desc": "",
      "stop_lat": 53.3827837191573,
      "stop_lon": -6.28283511246108,
      "zone_id": "",
      "stop_url": "",
      "location_type": "",
      "parent_station": ""
    },
    {
      "stop_id": "8220DB000164",
      "stop_code": 164,
      "stop_name": "Beneavin Road",
      "stop_desc": "",
      "stop_lat": 53.3884303639456,
      "stop_lon": -6.28048792293046,
      "zone_id": "",
      "stop_url": "",
      "location_type": "",
      "parent_station": ""
    },
    {
      "stop_id": "8220DB000165",
      "stop_code": 165,
      "stop_name": "Beneavin Park",
      "stop_desc": "",
      "stop_lat": 53.3890348746718,
      "stop_lon": -6.28377124881097,
      "zone_id": "",
      "stop_url": "",
      "location_type": "",
      "parent_station": ""
    },
    {
      "stop_id": "8220DB000166",
      "stop_code": 166,
      "stop_name": "Beneavin School",
      "stop_desc": "",
      "stop_lat": 53.3895835973683,
      "stop_lon": -6.28630514857364,
      "zone_id": "",
      "stop_url": "",
      "location_type": "",
      "parent_station": ""
    },
    {
      "stop_id": "8220DB000167",
      "stop_code": 167,
      "stop_name": "Beneavin Road",
      "stop_desc": "",
      "stop_lat": 53.3901866021356,
      "stop_lon": -6.28698758531706,
      "zone_id": "",
      "stop_url": "",
      "location_type": "",
      "parent_station": ""
    },
    {
      "stop_id": "8220DB000168",
      "stop_code": 168,
      "stop_name": "Beneavin Park",
      "stop_desc": "",
      "stop_lat": 53.3892599668872,
      "stop_lon": -6.28442373469442,
      "zone_id": "",
      "stop_url": "",
      "location_type": "",
      "parent_station": ""
    },
    {
      "stop_id": "8220DB000169",
      "stop_code": 169,
      "stop_name": "Beneavin Court",
      "stop_desc": "",
      "stop_lat": 53.3884339346693,
      "stop_lon": -6.28011190995853,
      "zone_id": "",
      "stop_url": "",
      "location_type": "",
      "parent_station": ""
    },
    {
      "stop_id": "8220DB000173",
      "stop_code": 173,
      "stop_name": "Glasnamana Place",
      "stop_desc": "",
      "stop_lat": 53.3821216122982,
      "stop_lon": -6.28054674839469,
      "zone_id": "",
      "stop_url": "",
      "location_type": "",
      "parent_station": ""
    },
    {
      "stop_id": "8220DB000174",
      "stop_code": 174,
      "stop_name": "Tolka Estate",
      "stop_desc": "",
      "stop_lat": 53.3806803549474,
      "stop_lon": -6.28095056210771,
      "zone_id": "",
      "stop_url": "",
      "location_type": "",
      "parent_station": ""
    },
    {
      "stop_id": "8220DB000175",
      "stop_code": 175,
      "stop_name": "Northland Grove",
      "stop_desc": "",
      "stop_lat": 53.3784242537309,
      "stop_lon": -6.28156753895514,
      "zone_id": "",
      "stop_url": "",
      "location_type": "",
      "parent_station": ""
    },
    {
      "stop_id": "8220DB000176",
      "stop_code": 176,
      "stop_name": "Old Finglas Road",
      "stop_desc": "",
      "stop_lat": 53.3780320419735,
      "stop_lon": -6.27929860607809,
      "zone_id": "",
      "stop_url": "",
      "location_type": "",
      "parent_station": ""
    },
    {
      "stop_id": "8220DB000177",
      "stop_code": 177,
      "stop_name": "Ballygall Road East",
      "stop_desc": "",
      "stop_lat": 53.3804683765673,
      "stop_lon": -6.27622403515383,
      "zone_id": "",
      "stop_url": "",
      "location_type": "",
      "parent_station": ""
    },
    {
      "stop_id": "8220DB000178",
      "stop_code": 178,
      "stop_name": "Fitzmaurice Road",
      "stop_desc": "",
      "stop_lat": 53.3818902631693,
      "stop_lon": -6.27634698261825,
      "zone_id": "",
      "stop_url": "",
      "location_type": "",
      "parent_station": ""
    },
    {
      "stop_id": "8220DB000179",
      "stop_code": 179,
      "stop_name": "Ballygall Road East",
      "stop_desc": "",
      "stop_lat": 53.3803034312762,
      "stop_lon": -6.27600521980133,
      "zone_id": "",
      "stop_url": "",
      "location_type": "",
      "parent_station": ""
    },
    {
      "stop_id": "8220DB000180",
      "stop_code": 180,
      "stop_name": "Cremore Crescent",
      "stop_desc": "",
      "stop_lat": 53.3784395640865,
      "stop_lon": -6.2763961751655,
      "zone_id": "",
      "stop_url": "",
      "location_type": "",
      "parent_station": ""
    },
    {
      "stop_id": "8220DB000181",
      "stop_code": 181,
      "stop_name": "Cremore Avenue",
      "stop_desc": "",
      "stop_lat": 53.3771498433764,
      "stop_lon": -6.27422370686192,
      "zone_id": "",
      "stop_url": "",
      "location_type": "",
      "parent_station": ""
    },
    {
      "stop_id": "8220DB000182",
      "stop_code": 182,
      "stop_name": "Met Eireann",
      "stop_desc": "",
      "stop_lat": 53.3756567668221,
      "stop_lon": -6.26980505970865,
      "zone_id": "",
      "stop_url": "",
      "location_type": "",
      "parent_station": ""
    },
    {
      "stop_id": "8220DB000183",
      "stop_code": 183,
      "stop_name": "Botanic Gardens",
      "stop_desc": "",
      "stop_lat": 53.3723159291215,
      "stop_lon": -6.26875318486038,
      "zone_id": "",
      "stop_url": "",
      "location_type": "",
      "parent_station": ""
    },
    {
      "stop_id": "8220DB000184",
      "stop_code": 184,
      "stop_name": "Botanic Road",
      "stop_desc": "",
      "stop_lat": 53.3697036819826,
      "stop_lon": -6.26897935449929,
      "zone_id": "",
      "stop_url": "",
      "location_type": "",
      "parent_station": ""
    },
    {
      "stop_id": "8220DB000185",
      "stop_code": 185,
      "stop_name": "St Teresa's Place",
      "stop_desc": "",
      "stop_lat": 53.3681009359861,
      "stop_lon": -6.27002113927784,
      "zone_id": "",
      "stop_url": "",
      "location_type": "",
      "parent_station": ""
    },
    {
      "stop_id": "8220DB000186",
      "stop_code": 186,
      "stop_name": "Lindsay Grove",
      "stop_desc": "",
      "stop_lat": 53.365355342635,
      "stop_lon": -6.27158997755118,
      "zone_id": "",
      "stop_url": "",
      "location_type": "",
      "parent_station": ""
    },
    {
      "stop_id": "8220DB000187",
      "stop_code": 187,
      "stop_name": "Phibsborough Road",
      "stop_desc": "",
      "stop_lat": 53.3627342523604,
      "stop_lon": -6.27244736533831,
      "zone_id": "",
      "stop_url": "",
      "location_type": "",
      "parent_station": ""
    },
    {
      "stop_id": "8220DB000188",
      "stop_code": 188,
      "stop_name": "North Circular Road",
      "stop_desc": "",
      "stop_lat": 53.3601206877553,
      "stop_lon": -6.27258314915011,
      "zone_id": "",
      "stop_url": "",
      "location_type": "",
      "parent_station": ""
    },
    {
      "stop_id": "8220DB000189",
      "stop_code": 189,
      "stop_name": "Fire Station",
      "stop_desc": "",
      "stop_lat": 53.3571674394883,
      "stop_lon": -6.27346881555339,
      "zone_id": "",
      "stop_url": "",
      "location_type": "",
      "parent_station": ""
    },
    {
      "stop_id": "8220DB000190",
      "stop_code": 190,
      "stop_name": "Broadstone",
      "stop_desc": "",
      "stop_lat": 53.3551257304144,
      "stop_lon": -6.27337107400574,
      "zone_id": "",
      "stop_url": "",
      "location_type": "",
      "parent_station": ""
    },
    {
      "stop_id": "8220DB000191",
      "stop_code": 191,
      "stop_name": "Western Way",
      "stop_desc": "",
      "stop_lat": 53.3550179485755,
      "stop_lon": -6.26903378050291,
      "zone_id": "",
      "stop_url": "",
      "location_type": "",
      "parent_station": ""
    },
    {
      "stop_id": "8220DB000192",
      "stop_code": 192,
      "stop_name": "Mountjoy Street",
      "stop_desc": "",
      "stop_lat": 53.3563972112359,
      "stop_lon": -6.26807646963914,
      "zone_id": "",
      "stop_url": "",
      "location_type": "",
      "parent_station": ""
    },
    {
      "stop_id": "8220DB000193",
      "stop_code": 193,
      "stop_name": "Finglas Park",
      "stop_desc": "",
      "stop_lat": 53.3911963059787,
      "stop_lon": -6.29410403487394,
      "zone_id": "",
      "stop_url": "",
      "location_type": "",
      "parent_station": ""
    },
    {
      "stop_id": "8220DB000194",
      "stop_code": 194,
      "stop_name": "Western Way",
      "stop_desc": "",
      "stop_lat": 53.3550406495518,
      "stop_lon": -6.26997931103774,
      "zone_id": "",
      "stop_url": "",
      "location_type": "",
      "parent_station": ""
    },
    {
      "stop_id": "8220DB000195",
      "stop_code": 195,
      "stop_name": "Broadstone",
      "stop_desc": "",
      "stop_lat": 53.3550117778767,
      "stop_lon": -6.27357097973096,
      "zone_id": "",
      "stop_url": "",
      "location_type": "",
      "parent_station": ""
    },
    {
      "stop_id": "8220DB000196",
      "stop_code": 196,
      "stop_name": "Fire Station",
      "stop_desc": "",
      "stop_lat": 53.3568838992907,
      "stop_lon": -6.27375070406954,
      "zone_id": "",
      "stop_url": "",
      "location_type": "",
      "parent_station": ""
    },
    {
      "stop_id": "8220DB000197",
      "stop_code": 197,
      "stop_name": "Monck Place",
      "stop_desc": "",
      "stop_lat": 53.358952631612,
      "stop_lon": -6.27323137351172,
      "zone_id": "",
      "stop_url": "",
      "location_type": "",
      "parent_station": ""
    },
    {
      "stop_id": "8220DB000198",
      "stop_code": 198,
      "stop_name": "Phibsborough SC",
      "stop_desc": "",
      "stop_lat": 53.3616253828786,
      "stop_lon": -6.27283781041661,
      "zone_id": "",
      "stop_url": "",
      "location_type": "",
      "parent_station": ""
    },
    {
      "stop_id": "8220DB000199",
      "stop_code": 199,
      "stop_name": "Munster Street",
      "stop_desc": "",
      "stop_lat": 53.3636218114982,
      "stop_lon": -6.27229124622519,
      "zone_id": "",
      "stop_url": "",
      "location_type": "",
      "parent_station": ""
    },
    {
      "stop_id": "8220DB000200",
      "stop_code": 200,
      "stop_name": "Prospect Way",
      "stop_desc": "",
      "stop_lat": 53.3674226926312,
      "stop_lon": -6.27159644393802,
      "zone_id": "",
      "stop_url": "",
      "location_type": "",
      "parent_station": ""
    },
    {
      "stop_id": "8220DB000201",
      "stop_code": 201,
      "stop_name": "Botanic Road",
      "stop_desc": "",
      "stop_lat": 53.3682910986599,
      "stop_lon": -6.27011862691081,
      "zone_id": "",
      "stop_url": "",
      "location_type": "",
      "parent_station": ""
    },
    {
      "stop_id": "8220DB000202",
      "stop_code": 202,
      "stop_name": "Fairfield Road",
      "stop_desc": "",
      "stop_lat": 53.3700800875498,
      "stop_lon": -6.26890397753376,
      "zone_id": "",
      "stop_url": "",
      "location_type": "",
      "parent_station": ""
    },
    {
      "stop_id": "8220DB000203",
      "stop_code": 203,
      "stop_name": "Whitehall College",
      "stop_desc": "",
      "stop_lat": 53.3763927937136,
      "stop_lon": -6.25001002810673,
      "zone_id": "",
      "stop_url": "",
      "location_type": "",
      "parent_station": ""
    },
    {
      "stop_id": "8220DB000204",
      "stop_code": 204,
      "stop_name": "Highfield Hospital",
      "stop_desc": "",
      "stop_lat": 53.379588357567,
      "stop_lon": -6.24666219273761,
      "zone_id": "",
      "stop_url": "",
      "location_type": "",
      "parent_station": ""
    },
    {
      "stop_id": "8220DB000205",
      "stop_code": 205,
      "stop_name": "Iveragh Road",
      "stop_desc": "",
      "stop_lat": 53.3813753269372,
      "stop_lon": -6.24532604699473,
      "zone_id": "",
      "stop_url": "",
      "location_type": "",
      "parent_station": ""
    },
    {
      "stop_id": "8220DB000206",
      "stop_code": 206,
      "stop_name": "Collins Avenue West",
      "stop_desc": "",
      "stop_lat": 53.3835460890329,
      "stop_lon": -6.24747670792428,
      "zone_id": "",
      "stop_url": "",
      "location_type": "",
      "parent_station": ""
    },
    {
      "stop_id": "8220DB000207",
      "stop_code": 207,
      "stop_name": "Larkhill Road",
      "stop_desc": "",
      "stop_lat": 53.3848216307362,
      "stop_lon": -6.24987478276802,
      "zone_id": "",
      "stop_url": "",
      "location_type": "",
      "parent_station": ""
    },
    {
      "stop_id": "8220DB000208",
      "stop_code": 208,
      "stop_name": "Glendun Road",
      "stop_desc": "",
      "stop_lat": 53.3866539303158,
      "stop_lon": -6.24795040815756,
      "zone_id": "",
      "stop_url": "",
      "location_type": "",
      "parent_station": ""
    },
    {
      "stop_id": "8220DB000209",
      "stop_code": 209,
      "stop_name": "Larkhill Road",
      "stop_desc": "",
      "stop_lat": 53.387271110529,
      "stop_lon": -6.24591044728042,
      "zone_id": "",
      "stop_url": "",
      "location_type": "",
      "parent_station": ""
    },
    {
      "stop_id": "8220DB000210",
      "stop_code": 210,
      "stop_name": "Crestfield Road",
      "stop_desc": "",
      "stop_lat": 53.3875940812728,
      "stop_lon": -6.24831772849056,
      "zone_id": "",
      "stop_url": "",
      "location_type": "",
      "parent_station": ""
    },
    {
      "stop_id": "8220DB000211",
      "stop_code": 211,
      "stop_name": "Collins Avenue",
      "stop_desc": "",
      "stop_lat": 53.3842808561631,
      "stop_lon": -6.24916033059417,
      "zone_id": "",
      "stop_url": "",
      "location_type": "",
      "parent_station": ""
    },
    {
      "stop_id": "8220DB000212",
      "stop_code": 212,
      "stop_name": "Whitehall",
      "stop_desc": "",
      "stop_lat": 53.3831956351277,
      "stop_lon": -6.24625839753322,
      "zone_id": "",
      "stop_url": "",
      "location_type": "",
      "parent_station": ""
    },
    {
      "stop_id": "8220DB000213",
      "stop_code": 213,
      "stop_name": "Iveragh Road",
      "stop_desc": "",
      "stop_lat": 53.3814495440234,
      "stop_lon": -6.24487202356896,
      "zone_id": "",
      "stop_url": "",
      "location_type": "",
      "parent_station": ""
    },
    {
      "stop_id": "8220DB000214",
      "stop_code": 214,
      "stop_name": "Highfield Hospital",
      "stop_desc": "",
      "stop_lat": 53.379408483573,
      "stop_lon": -6.24665455182556,
      "zone_id": "",
      "stop_url": "",
      "location_type": "",
      "parent_station": ""
    },
    {
      "stop_id": "8220DB000215",
      "stop_code": 215,
      "stop_name": "Collins Avenue",
      "stop_desc": "",
      "stop_lat": 53.3818722870048,
      "stop_lon": -6.2424494292295,
      "zone_id": "",
      "stop_url": "",
      "location_type": "",
      "parent_station": ""
    },
    {
      "stop_id": "8220DB000216",
      "stop_code": 216,
      "stop_name": "Beaumont Road",
      "stop_desc": "",
      "stop_lat": 53.3823308174836,
      "stop_lon": -6.23819131969338,
      "zone_id": "",
      "stop_url": "",
      "location_type": "",
      "parent_station": ""
    },
    {
      "stop_id": "8220DB000217",
      "stop_code": 217,
      "stop_name": "Grace Park Court",
      "stop_desc": "",
      "stop_lat": 53.384323621843,
      "stop_lon": -6.23680112220447,
      "zone_id": "",
      "stop_url": "",
      "location_type": "",
      "parent_station": ""
    },
    {
      "stop_id": "8220DB000218",
      "stop_code": 218,
      "stop_name": "Shantalla Road",
      "stop_desc": "",
      "stop_lat": 53.3859238989699,
      "stop_lon": -6.2337883241109,
      "zone_id": "",
      "stop_url": "",
      "location_type": "",
      "parent_station": ""
    },
    {
      "stop_id": "8220DB000220",
      "stop_code": 220,
      "stop_name": "Swords Road",
      "stop_desc": "",
      "stop_lat": 53.3879405396554,
      "stop_lon": -6.24498084117383,
      "zone_id": "",
      "stop_url": "",
      "location_type": "",
      "parent_station": ""
    },
    {
      "stop_id": "8220DB000228",
      "stop_code": 228,
      "stop_name": "Shanliss Road",
      "stop_desc": "",
      "stop_lat": 53.391877392779,
      "stop_lon": -6.25971957291398,
      "zone_id": "",
      "stop_url": "",
      "location_type": "",
      "parent_station": ""
    },
    {
      "stop_id": "8220DB000233",
      "stop_code": 233,
      "stop_name": "Beaumont Road",
      "stop_desc": "",
      "stop_lat": 53.3858213105789,
      "stop_lon": -6.23353699415902,
      "zone_id": "",
      "stop_url": "",
      "location_type": "",
      "parent_station": ""
    },
    {
      "stop_id": "8220DB000234",
      "stop_code": 234,
      "stop_name": "Beaumont Grove",
      "stop_desc": "",
      "stop_lat": 53.3849504827242,
      "stop_lon": -6.23482084271804,
      "zone_id": "",
      "stop_url": "",
      "location_type": "",
      "parent_station": ""
    },
    {
      "stop_id": "8220DB000235",
      "stop_code": 235,
      "stop_name": "Collinswood",
      "stop_desc": "",
      "stop_lat": 53.3832966131819,
      "stop_lon": -6.23724945651059,
      "zone_id": "",
      "stop_url": "",
      "location_type": "",
      "parent_station": ""
    },
    {
      "stop_id": "8220DB000236",
      "stop_code": 236,
      "stop_name": "Yellow Road",
      "stop_desc": "",
      "stop_lat": 53.3820247430957,
      "stop_lon": -6.23815886003786,
      "zone_id": "",
      "stop_url": "",
      "location_type": "",
      "parent_station": ""
    },
    {
      "stop_id": "8220DB000237",
      "stop_code": 237,
      "stop_name": "Swords Road",
      "stop_desc": "",
      "stop_lat": 53.3820319328819,
      "stop_lon": -6.24352519975875,
      "zone_id": "",
      "stop_url": "",
      "location_type": "",
      "parent_station": ""
    },
    {
      "stop_id": "8220DB000242",
      "stop_code": 242,
      "stop_name": "Coolgreena Road",
      "stop_desc": "",
      "stop_lat": 53.3856548985671,
      "stop_lon": -6.23201042765,
      "zone_id": "",
      "stop_url": "",
      "location_type": "",
      "parent_station": ""
    },
    {
      "stop_id": "8220DB000243",
      "stop_code": 243,
      "stop_name": "Lady of Mercy",
      "stop_desc": "",
      "stop_lat": 53.3857800608389,
      "stop_lon": -6.22953967454698,
      "zone_id": "",
      "stop_url": "",
      "location_type": "",
      "parent_station": ""
    },
    {
      "stop_id": "8220DB000244",
      "stop_code": 244,
      "stop_name": "Skelly's Lane",
      "stop_desc": "",
      "stop_lat": 53.3849982136853,
      "stop_lon": -6.22349851566417,
      "zone_id": "",
      "stop_url": "",
      "location_type": "",
      "parent_station": ""
    },
    {
      "stop_id": "8220DB000245",
      "stop_code": 245,
      "stop_name": "Whitethorn Crescent",
      "stop_desc": "",
      "stop_lat": 53.38447224442,
      "stop_lon": -6.21956660604612,
      "zone_id": "",
      "stop_url": "",
      "location_type": "",
      "parent_station": ""
    },
    {
      "stop_id": "8220DB000246",
      "stop_code": 246,
      "stop_name": "Artane Castle",
      "stop_desc": "",
      "stop_lat": 53.3851504766469,
      "stop_lon": -6.21623087716996,
      "zone_id": "",
      "stop_url": "",
      "location_type": "",
      "parent_station": ""
    },
    {
      "stop_id": "8220DB000247",
      "stop_code": 247,
      "stop_name": "Ardlea Road",
      "stop_desc": "",
      "stop_lat": 53.3869761610588,
      "stop_lon": -6.21450075590277,
      "zone_id": "",
      "stop_url": "",
      "location_type": "",
      "parent_station": ""
    },